[
  {
    "id": "ARCOM@C100",
    "name": "Théâtre Quai 2",
    "lat": 49.180676,
    "lon": -0.362459
  },
  {
    "id": "COM_vauc02_1",
    "name": "Vaucelles",
    "lat": 49.173931,
    "lon": -0.353906
  },
  {
    "id": "COM_laen02",
    "name": "Laennec",
    "lat": 49.204815,
    "lon": -0.347357
  },
  {
    "id": "COM_oupb01",
    "name": "Moulin Carnot (anc.  Petit Bonheur)",
    "lat": 49.273876,
    "lon": -0.260504
  },
  {
    "id": "COM_epro01_1",
    "name": "Germes de Blé",
    "lat": 49.221001,
    "lon": -0.36756
  },
  {
    "id": "ARCOM@C039",
    "name": "Zénith",
    "lat": 49.172443,
    "lon": -0.380402
  },
  {
    "id": "COM_indu01_1",
    "name": "Industrie",
    "lat": 49.157089,
    "lon": -0.326572
  },
  {
    "id": "COM_pabl01",
    "name": "Paitis Blancs",
    "lat": 49.126652,
    "lon": -0.385566
  },
  {
    "id": "COM_jufe02",
    "name": "Jules Ferry",
    "lat": 49.185181,
    "lon": -0.288224
  },
  {
    "id": "COM_queb11",
    "name": "Palais des Sports",
    "lat": 49.171932,
    "lon": -0.385631
  },
  {
    "id": "COM_rofr02",
    "name": "Rostand Fresnel",
    "lat": 49.162083,
    "lon": -0.354144
  },
  {
    "id": "COM_ousc02_1",
    "name": "Sacré Coeur",
    "lat": 49.277397,
    "lon": -0.262536
  },
  {
    "id": "COM_lmp02",
    "name": "Lion Plage",
    "lat": 49.30584,
    "lon": -0.323938
  },
  {
    "id": "COM_rdim02",
    "name": "Rue de la Dîme",
    "lat": 49.233833,
    "lon": -0.520547
  },
  {
    "id": "COM_rbui02_1",
    "name": "Buisson",
    "lat": 49.169292,
    "lon": -0.41581
  },
  {
    "id": "COM_chha02",
    "name": "Chemin de Halage",
    "lat": 49.206886,
    "lon": -0.315688
  },
  {
    "id": "COM_l3va01",
    "name": "Les 3 Vallées",
    "lat": 49.204594,
    "lon": -0.292836
  },
  {
    "id": "COM_hmbb01",
    "name": "Blanc Bois",
    "lat": 49.280251,
    "lon": -0.315435
  },
  {
    "id": "COM_libt21",
    "name": "Liberté",
    "lat": 49.161068,
    "lon": -0.342829
  },
  {
    "id": "COM_laza02_1",
    "name": "Lazzaro",
    "lat": 49.19978,
    "lon": -0.293142
  },
  {
    "id": "COM_cale01_1",
    "name": "Carrefour de Lebisey",
    "lat": 49.21386,
    "lon": -0.340866
  },
  {
    "id": "COM_paca01",
    "name": "Pays de Caen",
    "lat": 49.197021,
    "lon": -0.298547
  },
  {
    "id": "COM_ruba02_1",
    "name": "Barbeux",
    "lat": 49.171597,
    "lon": -0.357973
  },
  {
    "id": "COM_bepa02",
    "name": "Bernard Palissy",
    "lat": 49.18438,
    "lon": -0.392609
  },
  {
    "id": "COM_maco22",
    "name": "Colombelles Mairie",
    "lat": 49.203506,
    "lon": -0.296827
  },
  {
    "id": "COM_koeni11",
    "name": "Koenig",
    "lat": 49.175335,
    "lon": -0.433366
  },
  {
    "id": "COM_burca02",
    "name": "Bergerie (anc.Buron Canadiens)",
    "lat": 49.219208,
    "lon": -0.423386
  },
  {
    "id": "COM_qume02",
    "name": "Quai Meslin",
    "lat": 49.176254,
    "lon": -0.354282
  },
  {
    "id": "COM_50ac02",
    "name": "50 Acres",
    "lat": 49.16761,
    "lon": -0.410331
  },
  {
    "id": "COM_rleb01_1",
    "name": "Rue de Lebisey",
    "lat": 49.192844,
    "lon": -0.357202
  },
  {
    "id": "COM_euva02",
    "name": "Eugène Varlin",
    "lat": 49.200382,
    "lon": -0.301442
  },
  {
    "id": "COM_vice02_1",
    "name": "Cerisiers",
    "lat": 49.23859,
    "lon": -0.41163
  },
  {
    "id": "COM_dudu02_1",
    "name": "Lycée D. d'Urville",
    "lat": 49.195831,
    "lon": -0.35525
  },
  {
    "id": "COM_masl01_1",
    "name": "Maslière",
    "lat": 49.171436,
    "lon": -0.424749
  },
  {
    "id": "COM_chep02",
    "name": "Château d'Eau Plateau",
    "lat": 49.17963,
    "lon": -0.308964
  },
  {
    "id": "COM_rega01",
    "name": "Egalité",
    "lat": 49.207336,
    "lon": -0.295192
  },
  {
    "id": "COM_path01",
    "name": "Parc Athéna",
    "lat": 49.204201,
    "lon": -0.392594
  },
  {
    "id": "ARCOM@C111",
    "name": "Place du Canada",
    "lat": 49.185429,
    "lon": -0.371679
  },
  {
    "id": "ARCOM@BIE006",
    "name": "Biéville Centre",
    "lat": 49.237362,
    "lon": -0.327206
  },
  {
    "id": "COM_lbij11",
    "name": "Bijude Commerces",
    "lat": 49.229019,
    "lon": -0.372336
  },
  {
    "id": "COM_brie01",
    "name": "Collège Guillemot",
    "lat": 49.172058,
    "lon": -0.316381
  },
  {
    "id": "COM_jcamb02",
    "name": "Jardins de Cambes",
    "lat": 49.2253,
    "lon": -0.386242
  },
  {
    "id": "COM_grcl02_1",
    "name": "Grand Clos",
    "lat": 49.212269,
    "lon": -0.405057
  },
  {
    "id": "COM_6acres",
    "name": "6 Acres",
    "lat": 49.226852,
    "lon": -0.371993
  },
  {
    "id": "COM_pich11",
    "name": "Robert Schuman",
    "lat": 49.19342,
    "lon": -0.387118
  },
  {
    "id": "COM_made02_1",
    "name": "Mandela",
    "lat": 49.186031,
    "lon": -0.300743
  },
  {
    "id": "COM_pasa02",
    "name": "Parc Saint-André (poteau provisoire)",
    "lat": 49.205158,
    "lon": -0.349815
  },
  {
    "id": "COM_stcbu",
    "name": "Allée du Parc (anc. Buron)",
    "lat": 49.217335,
    "lon": -0.420993
  },
  {
    "id": "COM_cacc02_2",
    "name": "Campus 2 C. Commercial",
    "lat": 49.209507,
    "lon": -0.367219
  },
  {
    "id": "1151183",
    "name": "Villons Centre",
    "lat": 49.24025,
    "lon": -0.408263
  },
  {
    "id": "COM_bart11",
    "name": "Barthou",
    "lat": 49.172432,
    "lon": -0.331108
  },
  {
    "id": "COM_etce12",
    "name": "Eterville Centre",
    "lat": 49.143871,
    "lon": -0.422667
  },
  {
    "id": "COM_coty22_1",
    "name": "Coty",
    "lat": 49.191284,
    "lon": -0.397705
  },
  {
    "id": "COM_bour01_1",
    "name": "Chemin Vert",
    "lat": 49.193829,
    "lon": -0.401912
  },
  {
    "id": "COM_zimo01",
    "name": "Mondeville ZI",
    "lat": 49.165009,
    "lon": -0.309529
  },
  {
    "id": "COM_epron",
    "name": "Epron Mairie",
    "lat": 49.223141,
    "lon": -0.371021
  },
  {
    "id": "COM_bito01",
    "name": "Bitot",
    "lat": 49.210678,
    "lon": -0.406608
  },
  {
    "id": "1150252",
    "name": "Lycée Claudel",
    "lat": 49.203178,
    "lon": -0.38544
  },
  {
    "id": "COM_leme02_1",
    "name": "Le Méridien",
    "lat": 49.190807,
    "lon": -0.391919
  },
  {
    "id": "ARCOM@C035",
    "name": "Demi-Lune",
    "lat": 49.174507,
    "lon": -0.339312
  },
  {
    "id": "COM_chou01_1",
    "name": "Chouquaie",
    "lat": 49.144142,
    "lon": -0.351113
  },
  {
    "id": "COM_robl03",
    "name": "Roche Blanche",
    "lat": 49.139622,
    "lon": -0.356821
  },
  {
    "id": "1176780",
    "name": "Tour Leroy",
    "lat": 49.184319,
    "lon": -0.358683
  },
  {
    "id": "COM_fleury22_1",
    "name": "Marcel Cachin",
    "lat": 49.145279,
    "lon": -0.374427
  },
  {
    "id": "COM_besi01",
    "name": "Beau Site",
    "lat": 49.145405,
    "lon": -0.380231
  },
  {
    "id": "COM_egve01_1",
    "name": "Venoix Eglise",
    "lat": 49.17281,
    "lon": -0.394551
  },
  {
    "id": "COM_rect02",
    "name": "Rectorat",
    "lat": 49.177528,
    "lon": -0.381521
  },
  {
    "id": "COM_plvi01_1",
    "name": "Place Villers",
    "lat": 49.178757,
    "lon": -0.378872
  },
  {
    "id": "ARCOM@C091",
    "name": "Pickford",
    "lat": 49.174015,
    "lon": -0.39094
  },
  {
    "id": "COM_ruce01",
    "name": "Plateau",
    "lat": 49.181911,
    "lon": -0.308752
  },
  {
    "id": "1151029",
    "name": "Champ Bailly",
    "lat": 49.21648,
    "lon": -0.415607
  },
  {
    "id": "COM_rdca11",
    "name": "Rue des Carrières",
    "lat": 49.182674,
    "lon": -0.272347
  },
  {
    "id": "ARCOM@C052",
    "name": "Vaugueux",
    "lat": 49.186008,
    "lon": -0.360348
  },
  {
    "id": "COM_anjo01",
    "name": "Anjou",
    "lat": 49.141548,
    "lon": -0.355313
  },
  {
    "id": "COM_epin01",
    "name": "Epinette",
    "lat": 49.142986,
    "lon": -0.354413
  },
  {
    "id": "COM_chev01",
    "name": "Chevaliers",
    "lat": 49.176872,
    "lon": -0.402055
  },
  {
    "id": "COM_paar02",
    "name": "Parc Archeo",
    "lat": 49.154072,
    "lon": -0.350878
  },
  {
    "id": "COM_trsup01",
    "name": "Ancienne Gare",
    "lat": 49.179531,
    "lon": -0.190689
  },
  {
    "id": "COM_nica02_1",
    "name": "Nice Caennais",
    "lat": 49.176186,
    "lon": -0.384439
  },
  {
    "id": "COM_etma02_1",
    "name": "Etat Major",
    "lat": 49.180687,
    "lon": -0.377491
  },
  {
    "id": "COM_labr01",
    "name": "Labrador",
    "lat": 49.1605,
    "lon": -0.335747
  },
  {
    "id": "COM_ampe01",
    "name": "Ampère",
    "lat": 49.160149,
    "lon": -0.322439
  },
  {
    "id": "COM_istp01_1",
    "name": "Institution Saint-Pierre",
    "lat": 49.182964,
    "lon": -0.38297
  },
  {
    "id": "COM_neme01",
    "name": "Neuf Mer",
    "lat": 49.230675,
    "lon": -0.48027
  },
  {
    "id": "COM_bico02",
    "name": "Bicoquet",
    "lat": 49.183064,
    "lon": -0.37968
  },
  {
    "id": "ARCOM@LFR021",
    "name": "Le Bout Renard",
    "lat": 49.26313,
    "lon": -0.48535
  },
  {
    "id": "COM_libec02_4",
    "name": "Libérateurs",
    "lat": 49.138561,
    "lon": -0.345215
  },
  {
    "id": "ARCOM@VER031",
    "name": "Odon",
    "lat": 49.150631,
    "lon": -0.473686
  },
  {
    "id": "COM_gemo01",
    "name": "Général Moulin",
    "lat": 49.187393,
    "lon": -0.409576
  },
  {
    "id": "COM_lyma11",
    "name": "Lycée Malherbe",
    "lat": 49.176308,
    "lon": -0.371123
  },
  {
    "id": "COM_lcha02_1",
    "name": "La Chapelle",
    "lat": 49.156933,
    "lon": -0.349523
  },
  {
    "id": "COM_stcl31",
    "name": "Hérouville Saint-Clair",
    "lat": 49.203758,
    "lon": -0.330534
  },
  {
    "id": "COM_gall32",
    "name": "Venoix",
    "lat": 49.18116,
    "lon": -0.400987
  },
  {
    "id": "COM_gall21",
    "name": "Gallieni",
    "lat": 49.182049,
    "lon": -0.402934
  },
  {
    "id": "ARCOM@BLO020",
    "name": "Bessin",
    "lat": 49.213337,
    "lon": -0.52185
  },
  {
    "id": "ARCOM@VER030",
    "name": "Avenue du Parc",
    "lat": 49.15461,
    "lon": -0.47181
  },
  {
    "id": "COM_vafo02_1",
    "name": "Foyer",
    "lat": 49.19545,
    "lon": -0.34534
  },
  {
    "id": "COM_clhe02_1",
    "name": "Clos Herbert",
    "lat": 49.192314,
    "lon": -0.354777
  },
  {
    "id": "COM_poeu01",
    "name": "Europe",
    "lat": 49.200275,
    "lon": -0.378914
  },
  {
    "id": "COM_nash02",
    "name": "Nashville",
    "lat": 49.20068,
    "lon": -0.387742
  },
  {
    "id": "COM_unic01",
    "name": "Unicité",
    "lat": 49.201443,
    "lon": -0.395035
  },
  {
    "id": "COM_pdlm31",
    "name": "Portes de la Mer",
    "lat": 49.204556,
    "lon": -0.320892
  },
  {
    "id": "COM_heke01_1",
    "name": "Hélène Keller",
    "lat": 49.185513,
    "lon": -0.339576
  },
  {
    "id": "COM_clho02_1",
    "name": "Clair Horizon",
    "lat": 49.159103,
    "lon": -0.349926
  },
  {
    "id": "COM_qulo02",
    "name": "Quai de la Londe",
    "lat": 49.183315,
    "lon": -0.353958
  },
  {
    "id": "COM_blpa",
    "name": "Blainville Parc",
    "lat": 49.233349,
    "lon": -0.289989
  },
  {
    "id": "COM_doau02",
    "name": "Docteur Auvray",
    "lat": 49.192974,
    "lon": -0.345812
  },
  {
    "id": "COM_touv02",
    "name": "Tourville",
    "lat": 49.184547,
    "lon": -0.347954
  },
  {
    "id": "COM_quha_1",
    "name": "Quai Hamelin",
    "lat": 49.177059,
    "lon": -0.353966
  },
  {
    "id": "COM_stth01",
    "name": "Sainte Thérèse",
    "lat": 49.170467,
    "lon": -0.338752
  },
  {
    "id": "COM_mupl02",
    "name": "Musique en Plaine",
    "lat": 49.125294,
    "lon": -0.307803
  },
  {
    "id": "COM_stje01",
    "name": "Saint Jean-Eudes",
    "lat": 49.188881,
    "lon": -0.33673
  },
  {
    "id": "ARCOM@GRE020",
    "name": "Le Clos",
    "lat": 49.147556,
    "lon": -0.287529
  },
  {
    "id": "COM_nico02",
    "name": "Nicolas Copernic",
    "lat": 49.164249,
    "lon": -0.325984
  },
  {
    "id": "COM_emzo01",
    "name": "Emile Zola",
    "lat": 49.232834,
    "lon": -0.302194
  },
  {
    "id": "COM_cdna02",
    "name": "Côte de Nacre",
    "lat": 49.211105,
    "lon": -0.362242
  },
  {
    "id": "COM_dovi01_1",
    "name": "Docteur Vincent",
    "lat": 49.191643,
    "lon": -0.347781
  },
  {
    "id": "COM_espi01",
    "name": "Espinettes",
    "lat": 49.219002,
    "lon": -0.339986
  },
  {
    "id": "COM_bear01",
    "name": "Beauregard",
    "lat": 49.213474,
    "lon": -0.317256
  },
  {
    "id": "COM_geva01_1",
    "name": "Vanier",
    "lat": 49.195404,
    "lon": -0.343758
  },
  {
    "id": "COM_ph02_2",
    "name": "Pierre Heuzé",
    "lat": 49.199238,
    "lon": -0.347142
  },
  {
    "id": "COM_cham02_1",
    "name": "Champagne",
    "lat": 49.19503,
    "lon": -0.389296
  },
  {
    "id": "COM_cacu03_1",
    "name": "Callouins",
    "lat": 49.187668,
    "lon": -0.268896
  },
  {
    "id": "COM_con01",
    "name": "Concorde",
    "lat": 49.156872,
    "lon": -0.341754
  },
  {
    "id": "COM_pdco02",
    "name": "Pierre de Coubertin",
    "lat": 49.182316,
    "lon": -0.281358
  },
  {
    "id": "COM_hagr02",
    "name": "Le Hameau",
    "lat": 49.149902,
    "lon": -0.287976
  },
  {
    "id": "COM_gyhu02_1",
    "name": "Gymnase Humbert",
    "lat": 49.208015,
    "lon": -0.334638
  },
  {
    "id": "COM_cimne02_1",
    "name": "Cimetiere Nord-Est",
    "lat": 49.190994,
    "lon": -0.340938
  },
  {
    "id": "COM_plsm02_1",
    "name": "Place Saint-Martin",
    "lat": 49.183826,
    "lon": -0.370099
  },
  {
    "id": "COM_ptsn02",
    "name": "Pont SNCF",
    "lat": 49.176476,
    "lon": -0.332058
  },
  {
    "id": "COM_cobo02_1",
    "name": "Couvrechef Bourg",
    "lat": 49.211761,
    "lon": -0.378869
  },
  {
    "id": "COM_cine02_1",
    "name": "Clémenceau",
    "lat": 49.190681,
    "lon": -0.339831
  },
  {
    "id": "1173831",
    "name": "Bures",
    "lat": 49.199253,
    "lon": -0.173655
  },
  {
    "id": "COM_ecol02",
    "name": "Lebisey",
    "lat": 49.216373,
    "lon": -0.343422
  },
  {
    "id": "COM_deca01",
    "name": "Decaen",
    "lat": 49.168545,
    "lon": -0.346911
  },
  {
    "id": "COM_ac02",
    "name": "Place de l'Europe",
    "lat": 49.202576,
    "lon": -0.336416
  },
  {
    "id": "COM_poca02_1",
    "name": "Pont de Calix",
    "lat": 49.185902,
    "lon": -0.335632
  },
  {
    "id": "COM_re01",
    "name": "Résistance Saint-Jean",
    "lat": 49.180866,
    "lon": -0.356051
  },
  {
    "id": "COM_monc01_1",
    "name": "Montcalm",
    "lat": 49.197693,
    "lon": -0.342733
  },
  {
    "id": "COM_sc01",
    "name": "Saint-Clair",
    "lat": 49.203613,
    "lon": -0.32923
  },
  {
    "id": "COM_beri11_1",
    "name": "Beau Rivage",
    "lat": 49.218155,
    "lon": -0.351066
  },
  {
    "id": "COM_cocc02_1",
    "name": "Corderie",
    "lat": 49.189526,
    "lon": -0.331205
  },
  {
    "id": "COM_msau02",
    "name": "Mont du Saule",
    "lat": 49.182827,
    "lon": -0.227084
  },
  {
    "id": "COM_pate22_1",
    "name": "Parc Tertiaire",
    "lat": 49.208778,
    "lon": -0.32454
  },
  {
    "id": "COM_ger02",
    "name": "Gernez",
    "lat": 49.194023,
    "lon": -0.383784
  },
  {
    "id": "COM_pich02_1",
    "name": "Chemin Vert Piscine",
    "lat": 49.194431,
    "lon": -0.386199
  },
  {
    "id": "COM_gdel01_1",
    "name": "Grande Delle",
    "lat": 49.206051,
    "lon": -0.341988
  },
  {
    "id": "COM_jean01",
    "name": "Jean XXIII",
    "lat": 49.19466,
    "lon": -0.326773
  },
  {
    "id": "COM_gruc01",
    "name": "Saint-Norbert",
    "lat": 49.189163,
    "lon": -0.40576
  },
  {
    "id": "COM_mmoi01",
    "name": "Maison Moisson",
    "lat": 49.156898,
    "lon": -0.398039
  },
  {
    "id": "COM_lope01",
    "name": "Loup Pendu",
    "lat": 49.155239,
    "lon": -0.452424
  },
  {
    "id": "COM_3dib01",
    "name": "3ème DIB",
    "lat": 49.216629,
    "lon": -0.340713
  },
  {
    "id": "ARCOM@TRN022",
    "name": "Plains Champs",
    "lat": 49.178288,
    "lon": -0.18204
  },
  {
    "id": "COM_arma02",
    "name": "Armand Marie",
    "lat": 49.164307,
    "lon": -0.359075
  },
  {
    "id": "COM_macu01_1",
    "name": "Cuverville Mairie",
    "lat": 49.192295,
    "lon": -0.263438
  },
  {
    "id": "COM_nled01",
    "name": "Lynton Lynmouth",
    "lat": 49.235909,
    "lon": -0.286743
  },
  {
    "id": "COM_hmpl01",
    "name": "Hermanville Plage",
    "lat": 49.297829,
    "lon": -0.305539
  },
  {
    "id": "ARCOM@OUI023",
    "name": "Riva Charmettes",
    "lat": 49.288029,
    "lon": -0.272322
  },
  {
    "id": "COM_tsuk11",
    "name": "Tsukuba",
    "lat": 49.214165,
    "lon": -0.353156
  },
  {
    "id": "COM_rtro01",
    "name": "Route de Rouen",
    "lat": 49.173859,
    "lon": -0.329598
  },
  {
    "id": "COM_chfo01_1",
    "name": "Chemin Foulon",
    "lat": 49.133453,
    "lon": -0.500888
  },
  {
    "id": "COM_crem02_1",
    "name": "Crématorium",
    "lat": 49.19453,
    "lon": -0.410347
  },
  {
    "id": "ARCOM@MAT004",
    "name": "Mathieu Bourg",
    "lat": 49.254913,
    "lon": -0.373208
  },
  {
    "id": "COM_isig02",
    "name": "Isigny",
    "lat": 49.190132,
    "lon": -0.400731
  },
  {
    "id": "1150079",
    "name": "Bas Manoir",
    "lat": 49.161751,
    "lon": -0.429531
  },
  {
    "id": "COM_loco12",
    "name": "Long Cours",
    "lat": 49.161179,
    "lon": -0.398234
  },
  {
    "id": "COM_dubn01_1",
    "name": "Dubna",
    "lat": 49.214615,
    "lon": -0.355238
  },
  {
    "id": "COM_bocl01_1",
    "name": "Bois Claquet",
    "lat": 49.177544,
    "lon": -0.305442
  },
  {
    "id": "COM_madu02_1",
    "name": "Authie Mairie",
    "lat": 49.206551,
    "lon": -0.430795
  },
  {
    "id": "COM_edro01",
    "name": "Edmond Rostand",
    "lat": 49.174259,
    "lon": -0.332972
  },
  {
    "id": "1150693",
    "name": "Mathieu Eglise",
    "lat": 49.254444,
    "lon": -0.369691
  },
  {
    "id": "COM_jaca12",
    "name": "Jacques Cartier",
    "lat": 49.208759,
    "lon": -0.429408
  },
  {
    "id": "ARCOM@C099",
    "name": "Maréchal Juin",
    "lat": 49.210484,
    "lon": -0.366596
  },
  {
    "id": "COM_lite01",
    "name": "Lionel Terray",
    "lat": 49.17786,
    "lon": -0.279061
  },
  {
    "id": "COM_bdle42_4",
    "name": "Leroy Merlin",
    "lat": 49.156769,
    "lon": -0.292253
  },
  {
    "id": "COM_cali02",
    "name": "Carrefour de la Liberté",
    "lat": 49.183521,
    "lon": -0.285006
  },
  {
    "id": "COM_rdba01",
    "name": "Barentins",
    "lat": 49.180653,
    "lon": -0.271307
  },
  {
    "id": "COM_lech01_1",
    "name": "Lechesne",
    "lat": 49.169838,
    "lon": -0.361007
  },
  {
    "id": "COM_grbu01_1",
    "name": "Grands Bureaux",
    "lat": 49.185772,
    "lon": -0.31038
  },
  {
    "id": "COM_cldr01_1",
    "name": "Clos des Roses",
    "lat": 49.186939,
    "lon": -0.392605
  },
  {
    "id": "COM_stpr01",
    "name": "Prestavoine",
    "lat": 49.201065,
    "lon": -0.342888
  },
  {
    "id": "COM_crgu02",
    "name": "Croix Guérin",
    "lat": 49.190666,
    "lon": -0.357448
  },
  {
    "id": "COM_edza01_1",
    "name": "Edouard Zarifian",
    "lat": 49.27808,
    "lon": -0.268877
  },
  {
    "id": "COM_grbo01",
    "name": "Grand Bois",
    "lat": 49.150642,
    "lon": -0.468363
  },
  {
    "id": "COM_cim01",
    "name": "Café des Images",
    "lat": 49.202442,
    "lon": -0.332425
  },
  {
    "id": "COM_cb01_1",
    "name": "Campus 4",
    "lat": 49.209026,
    "lon": -0.358835
  },
  {
    "id": "COM_plm02_1",
    "name": "Place de la Mare",
    "lat": 49.18692,
    "lon": -0.366134
  },
  {
    "id": "COM_bl01",
    "name": "Leroy",
    "lat": 49.17337,
    "lon": -0.344369
  },
  {
    "id": "COM_gdd01",
    "name": "Grâce de Dieu",
    "lat": 49.161346,
    "lon": -0.360227
  },
  {
    "id": "COM_fpac02",
    "name": "Afpa",
    "lat": 49.191334,
    "lon": -0.383017
  },
  {
    "id": "COM_rtca02",
    "name": "Route de Cabourg",
    "lat": 49.179939,
    "lon": -0.320917
  },
  {
    "id": "COM_cisg01_1",
    "name": "Saint-Gabriel",
    "lat": 49.187832,
    "lon": -0.37867
  },
  {
    "id": "COM_ch01",
    "name": "CHU",
    "lat": 49.204395,
    "lon": -0.359505
  },
  {
    "id": "COM_rtan03",
    "name": "Route d'Anisy",
    "lat": 49.242893,
    "lon": -0.405934
  },
  {
    "id": "COM_aven02",
    "name": "Avenir",
    "lat": 49.15155,
    "lon": -0.472847
  },
  {
    "id": "COM_prev12_1",
    "name": "Prévert",
    "lat": 49.120659,
    "lon": -0.383124
  },
  {
    "id": "COM_un01",
    "name": "Université",
    "lat": 49.188877,
    "lon": -0.363884
  },
  {
    "id": "ARCOM@C025",
    "name": "Lycée de Gaulle",
    "lat": 49.184475,
    "lon": -0.379185
  },
  {
    "id": "COM_mafo04",
    "name": "Maurice Fouques",
    "lat": 49.171333,
    "lon": -0.328524
  },
  {
    "id": "COM_casp62",
    "name": "Calvaire Saint-Pierre",
    "lat": 49.198444,
    "lon": -0.364151
  },
  {
    "id": "COM_mebou02",
    "name": "Mesnil Bourg",
    "lat": 49.203983,
    "lon": -0.183482
  },
  {
    "id": "1150574",
    "name": "Le Fresne Bourg",
    "lat": 49.25156,
    "lon": -0.48364
  },
  {
    "id": "COM_ccom02",
    "name": "Mondeville Centre Commercial",
    "lat": 49.16217,
    "lon": -0.293296
  },
  {
    "id": "ARCOM@MAT022",
    "name": "Equipement",
    "lat": 49.251186,
    "lon": -0.383357
  },
  {
    "id": "1150262",
    "name": "Campus 2",
    "lat": 49.211456,
    "lon": -0.363657
  },
  {
    "id": "StopAreaCAE3841",
    "name": "Collège Montgomeri",
    "lat": 49.180687,
    "lon": -0.187491
  },
  {
    "id": "COM_rubr02_1",
    "name": "Branville",
    "lat": 49.167664,
    "lon": -0.363361
  },
  {
    "id": "1150869",
    "name": "Croix Vautier",
    "lat": 49.202324,
    "lon": -0.463928
  },
  {
    "id": "COM_jeun01",
    "name": "Cairon Château",
    "lat": 49.238003,
    "lon": -0.450427
  },
  {
    "id": "COM_rosel01",
    "name": "Rosel Bourg",
    "lat": 49.228394,
    "lon": -0.459349
  },
  {
    "id": "1150035",
    "name": "L'Orgueilleuse Mairie",
    "lat": 49.211613,
    "lon": -0.515895
  },
  {
    "id": "COM_bray01",
    "name": "Bray",
    "lat": 49.226643,
    "lon": -0.489436
  },
  {
    "id": "COM_suno01",
    "name": "Suisse Normande",
    "lat": 49.140343,
    "lon": -0.373249
  },
  {
    "id": "1150864",
    "name": "Gruchy",
    "lat": 49.216656,
    "lon": -0.436066
  },
  {
    "id": "COM_debu12_1",
    "name": "Debussy",
    "lat": 49.140133,
    "lon": -0.35469
  },
  {
    "id": "COM_htha02",
    "name": "Hauts de Thaon",
    "lat": 49.255638,
    "lon": -0.456501
  },
  {
    "id": "COM_montg02",
    "name": "Montgomery",
    "lat": 49.202354,
    "lon": -0.390453
  },
  {
    "id": "COM_onta01",
    "name": "Ontario",
    "lat": 49.13633,
    "lon": -0.347968
  },
  {
    "id": "COM_hmca01_1",
    "name": "Canardière",
    "lat": 49.290329,
    "lon": -0.310203
  },
  {
    "id": "COM_paor01",
    "name": "Parc d'Ornano",
    "lat": 49.18903,
    "lon": -0.348297
  },
  {
    "id": "COM_jacl01",
    "name": "Sidérurgie",
    "lat": 49.190895,
    "lon": -0.284331
  },
  {
    "id": "COM_rcau02",
    "name": "Route de Caumont",
    "lat": 49.187313,
    "lon": -0.416697
  },
  {
    "id": "COM_meta01",
    "name": "Jardins de Clopée",
    "lat": 49.189304,
    "lon": -0.289107
  },
  {
    "id": "COM_dub01",
    "name": "Dublin",
    "lat": 49.168243,
    "lon": -0.312209
  },
  {
    "id": "COM_lmlf01",
    "name": "LION PLAGE",
    "lat": 49.305428,
    "lon": -0.323604
  },
  {
    "id": "COM_lmlf02",
    "name": "LION LES FALAISES",
    "lat": 49.30555,
    "lon": -0.323525
  },
  {
    "id": "COM_clne01",
    "name": "ZA du Clos Neuf",
    "lat": 49.173264,
    "lon": -0.265432
  },
  {
    "id": "StopAreaCAE3840",
    "name": "Le Maizeret",
    "lat": 49.189728,
    "lon": -0.207057
  },
  {
    "id": "COM_moeg02",
    "name": "Mondeville Eglise",
    "lat": 49.175339,
    "lon": -0.322137
  },
  {
    "id": "COM_acaci01_1",
    "name": "Acacia",
    "lat": 49.181408,
    "lon": -0.183914
  },
  {
    "id": "COM_isav02",
    "name": "Isaville",
    "lat": 49.294968,
    "lon": -0.294733
  },
  {
    "id": "COM_stad02",
    "name": "Troarn Stade",
    "lat": 49.182091,
    "lon": -0.187389
  },
  {
    "id": "COM_deli12",
    "name": "Délivrande",
    "lat": 49.190056,
    "lon": -0.359426
  },
  {
    "id": "COM_vervi01",
    "name": "Verts Villages",
    "lat": 49.224552,
    "lon": -0.310066
  },
  {
    "id": "COM_IFS025B",
    "name": "Charité",
    "lat": 49.152523,
    "lon": -0.342854
  },
  {
    "id": "peva02",
    "name": "Petit Vallon",
    "lat": 49.181755,
    "lon": -0.266067
  },
  {
    "id": "peva01",
    "name": "Petit Vallon",
    "lat": 49.182404,
    "lon": -0.265962
  },
  {
    "id": "rbay01",
    "name": "Route de Bayeux",
    "lat": 49.188282,
    "lon": -0.415321
  },
  {
    "id": "mjc01",
    "name": "PAJ-MJC",
    "lat": 49.200069,
    "lon": -0.332999
  },
  {
    "id": "euma01",
    "name": "Eugène Maës",
    "lat": 49.176571,
    "lon": -0.388847
  },
  {
    "id": "chrm01",
    "name": "Charmettes",
    "lat": 49.173504,
    "lon": -0.326227
  },
  {
    "id": "demou01",
    "name": "Démouville Mairie",
    "lat": 49.178257,
    "lon": -0.270278
  },
  {
    "id": "cuss02",
    "name": "Cussy",
    "lat": 49.20166,
    "lon": -0.417313
  },
  {
    "id": "cali01",
    "name": "Carrefour de la Liberté",
    "lat": 49.183449,
    "lon": -0.284844
  },
  {
    "id": "finl02",
    "name": "Finlande",
    "lat": 49.174007,
    "lon": -0.305919
  },
  {
    "id": "finl01",
    "name": "Finlande",
    "lat": 49.174969,
    "lon": -0.306393
  },
  {
    "id": "1151699",
    "name": "Lazzaro",
    "lat": 49.19817,
    "lon": -0.29412
  },
  {
    "id": "caef11",
    "name": "Campus Efficience",
    "lat": 49.188507,
    "lon": -0.308789
  },
  {
    "id": "rorn12",
    "name": "Gare - Rives de l'Orne",
    "lat": 49.178513,
    "lon": -0.350854
  },
  {
    "id": "stmi01",
    "name": "Saint-Michel",
    "lat": 49.175404,
    "lon": -0.35471
  },
  {
    "id": "1151700",
    "name": "Lazzaro",
    "lat": 49.199879,
    "lon": -0.29171
  },
  {
    "id": "zaco11",
    "name": "Colombelles ZA",
    "lat": 49.194752,
    "lon": -0.293499
  },
  {
    "id": "rech02",
    "name": "Résidence aux Champs",
    "lat": 49.205811,
    "lon": -0.428347
  },
  {
    "id": "magi01",
    "name": "Giberville Mairie",
    "lat": 49.181534,
    "lon": -0.2821
  },
  {
    "id": "pexn02",
    "name": "Zénith",
    "lat": 49.172512,
    "lon": -0.380337
  },
  {
    "id": "vibu11",
    "name": "Rue de Villons",
    "lat": 49.199696,
    "lon": -0.400251
  },
  {
    "id": "pexn01",
    "name": "Zénith",
    "lat": 49.172375,
    "lon": -0.380467
  },
  {
    "id": "inno11",
    "name": "Innovaparc",
    "lat": 49.188747,
    "lon": -0.304412
  },
  {
    "id": "cthe12",
    "name": "Théâtre Quai 4",
    "lat": 49.179775,
    "lon": -0.363331
  },
  {
    "id": "pomp02",
    "name": "Pompidou",
    "lat": 49.181351,
    "lon": -0.399317
  },
  {
    "id": "siva02",
    "name": "Silicon Valley",
    "lat": 49.179337,
    "lon": -0.394904
  },
  {
    "id": "rtpa01",
    "name": "Route de Paris",
    "lat": 49.170048,
    "lon": -0.323868
  },
  {
    "id": "ciga02",
    "name": "Espace Gardin",
    "lat": 49.179676,
    "lon": -0.365714
  },
  {
    "id": "coty22",
    "name": "Coty",
    "lat": 49.19157,
    "lon": -0.398159
  },
  {
    "id": "rtpa02",
    "name": "Route de Paris",
    "lat": 49.16996,
    "lon": -0.323823
  },
  {
    "id": "sieu02",
    "name": "Sieurcas",
    "lat": 49.263229,
    "lon": -0.293541
  },
  {
    "id": "sieu01",
    "name": "Sieurcas",
    "lat": 49.263134,
    "lon": -0.293454
  },
  {
    "id": "pfoc21",
    "name": "Place Foch",
    "lat": 49.177414,
    "lon": -0.359518
  },
  {
    "id": "stcme01",
    "name": "Stade C. Mercier",
    "lat": 49.177559,
    "lon": -0.390833
  },
  {
    "id": "nled02",
    "name": "Lynton Lynmouth",
    "lat": 49.235947,
    "lon": -0.286724
  },
  {
    "id": "tl_4",
    "name": "Tour Leroy",
    "lat": 49.184452,
    "lon": -0.358804
  },
  {
    "id": "chep02",
    "name": "Château d'Eau Plateau",
    "lat": 49.17963,
    "lon": -0.308936
  },
  {
    "id": "1152842",
    "name": "Centre commercial Sud",
    "lat": 49.160046,
    "lon": -0.291779
  },
  {
    "id": "euma02",
    "name": "Eugène Maës",
    "lat": 49.176903,
    "lon": -0.388892
  },
  {
    "id": "cs02",
    "name": "CROUS-SUAPS",
    "lat": 49.193779,
    "lon": -0.363805
  },
  {
    "id": "unic02",
    "name": "Unicité",
    "lat": 49.201553,
    "lon": -0.394794
  },
  {
    "id": "1152841",
    "name": "Centre commercial Sud",
    "lat": 49.160118,
    "lon": -0.29179
  },
  {
    "id": "cam501",
    "name": "Campus 5",
    "lat": 49.208443,
    "lon": -0.35228
  },
  {
    "id": "isav01",
    "name": "Isaville",
    "lat": 49.295078,
    "lon": -0.295199
  },
  {
    "id": "hmmi02",
    "name": "Minotaure",
    "lat": 49.294483,
    "lon": -0.304666
  },
  {
    "id": "piep01",
    "name": "Piéplu",
    "lat": 49.274601,
    "lon": -0.301748
  },
  {
    "id": "pc01",
    "name": "Place Courtonne",
    "lat": 49.184299,
    "lon": -0.356616
  },
  {
    "id": "list02",
    "name": "Lion Stade",
    "lat": 49.300327,
    "lon": -0.324254
  },
  {
    "id": "edza02",
    "name": "Edouard Zarifian",
    "lat": 49.278057,
    "lon": -0.268622
  },
  {
    "id": "poes02",
    "name": "Porte d'Espagne",
    "lat": 49.14782,
    "lon": -0.34027
  },
  {
    "id": "hagr01",
    "name": "Le Hameau",
    "lat": 49.149902,
    "lon": -0.287976
  },
  {
    "id": "rumo22",
    "name": "Moulin",
    "lat": 49.146378,
    "lon": -0.421252
  },
  {
    "id": "C020A",
    "name": "Place Courtonne",
    "lat": 49.184425,
    "lon": -0.358247
  },
  {
    "id": "hmma02",
    "name": "Hermanville Mairie",
    "lat": 49.286716,
    "lon": -0.312951
  },
  {
    "id": "labr01",
    "name": "Labrador",
    "lat": 49.160542,
    "lon": -0.335783
  },
  {
    "id": "ecuy01",
    "name": "Ecuyère",
    "lat": 49.181892,
    "lon": -0.366733
  },
  {
    "id": "chrm02",
    "name": "Charmettes",
    "lat": 49.173389,
    "lon": -0.32572
  },
  {
    "id": "coud02",
    "name": "Coudriers",
    "lat": 49.162163,
    "lon": -0.339679
  },
  {
    "id": "jevi32",
    "name": "Jean Vilar",
    "lat": 49.15007,
    "lon": -0.350851
  },
  {
    "id": "pihe22",
    "name": "Pierre Heuzé",
    "lat": 49.199043,
    "lon": -0.346418
  },
  {
    "id": "veva02",
    "name": "Vert Vallon",
    "lat": 49.158504,
    "lon": -0.32796
  },
  {
    "id": "moeg01",
    "name": "Mondeville Eglise",
    "lat": 49.175358,
    "lon": -0.322312
  },
  {
    "id": "ph02",
    "name": "Pierre Heuzé",
    "lat": 49.199173,
    "lon": -0.347022
  },
  {
    "id": "plma22",
    "name": "Miséricorde",
    "lat": 49.185932,
    "lon": -0.367347
  },
  {
    "id": "plma21",
    "name": "Miséricorde",
    "lat": 49.185905,
    "lon": -0.36726
  },
  {
    "id": "moeg02",
    "name": "Mondeville Eglise",
    "lat": 49.175316,
    "lon": -0.321963
  },
  {
    "id": "peric01",
    "name": "Péricentre",
    "lat": 49.200493,
    "lon": -0.360741
  },
  {
    "id": "prim01",
    "name": "Primevères",
    "lat": 49.213528,
    "lon": -0.540264
  },
  {
    "id": "clas01",
    "name": "Collines",
    "lat": 49.230896,
    "lon": -0.468668
  },
  {
    "id": "ecmu02",
    "name": "Claudie Haigneré",
    "lat": 49.211231,
    "lon": -0.326341
  },
  {
    "id": "ampe02",
    "name": "Ampère",
    "lat": 49.160149,
    "lon": -0.322439
  },
  {
    "id": "noka11",
    "name": "Normandika",
    "lat": 49.145515,
    "lon": -0.366642
  },
  {
    "id": "mfca01",
    "name": "Le Fresne Mairie",
    "lat": 49.25782,
    "lon": -0.488527
  },
  {
    "id": "cons02",
    "name": "Hôtel de Ville Quai 3",
    "lat": 49.180141,
    "lon": -0.371002
  },
  {
    "id": "suno02",
    "name": "Suisse Normande",
    "lat": 49.140404,
    "lon": -0.372971
  },
  {
    "id": "alle02",
    "name": "Allende",
    "lat": 49.203556,
    "lon": -0.342791
  },
  {
    "id": "13ac02",
    "name": "13 Acres",
    "lat": 49.189751,
    "lon": -0.394455
  },
  {
    "id": "fove01",
    "name": "Fontaine Venoise",
    "lat": 49.175003,
    "lon": -0.400845
  },
  {
    "id": "gruc01",
    "name": "Saint-Norbert",
    "lat": 49.189133,
    "lon": -0.405711
  },
  {
    "id": "movi02",
    "name": "Mondevillage",
    "lat": 49.160576,
    "lon": -0.301748
  },
  {
    "id": "3dib02",
    "name": "3ème DIB",
    "lat": 49.21661,
    "lon": -0.34078
  },
  {
    "id": "lebi12",
    "name": "Lebisey",
    "lat": 49.214443,
    "lon": -0.343425
  },
  {
    "id": "conn",
    "name": "Hérouville Piscine",
    "lat": 49.195278,
    "lon": -0.328547
  },
  {
    "id": "gyla02",
    "name": "Gymnase Laporte",
    "lat": 49.196884,
    "lon": -0.335558
  },
  {
    "id": "mala01",
    "name": "Maladrerie",
    "lat": 49.187237,
    "lon": -0.406913
  },
  {
    "id": "gyhu02",
    "name": "Gymnase Humbert",
    "lat": 49.207954,
    "lon": -0.334266
  },
  {
    "id": "drak02",
    "name": "Drakkar-BBC",
    "lat": 49.209995,
    "lon": -0.332163
  },
  {
    "id": "grpa01",
    "name": "Grand Parc",
    "lat": 49.202293,
    "lon": -0.336991
  },
  {
    "id": "egbr01",
    "name": "Bretteville Église",
    "lat": 49.166691,
    "lon": -0.412964
  },
  {
    "id": "egbr02",
    "name": "Bretteville Église",
    "lat": 49.166443,
    "lon": -0.413963
  },
  {
    "id": "egve02",
    "name": "Venoix Eglise",
    "lat": 49.172722,
    "lon": -0.394882
  },
  {
    "id": "malo02",
    "name": "Louvigny Mairie",
    "lat": 49.156872,
    "lon": -0.39008
  },
  {
    "id": "abar02",
    "name": "Abbaye",
    "lat": 49.197117,
    "lon": -0.413078
  },
  {
    "id": "egve01",
    "name": "Venoix Eglise",
    "lat": 49.172897,
    "lon": -0.39422
  },
  {
    "id": "tourn02",
    "name": "Tournières",
    "lat": 49.185452,
    "lon": -0.389441
  },
  {
    "id": "egtha01",
    "name": "Thaon Eglise",
    "lat": 49.260929,
    "lon": -0.456599
  },
  {
    "id": "elas01",
    "name": "Centre Animation",
    "lat": 49.229904,
    "lon": -0.463686
  },
  {
    "id": "1153119",
    "name": "Libération",
    "lat": 49.180984,
    "lon": -0.22202
  },
  {
    "id": "macl01",
    "name": "Mare aux Clercs",
    "lat": 49.208664,
    "lon": -0.506702
  },
  {
    "id": "eglo02",
    "name": "Louvigny Eglise",
    "lat": 49.158531,
    "lon": -0.387523
  },
  {
    "id": "eglo01",
    "name": "Louvigny Eglise",
    "lat": 49.158596,
    "lon": -0.387471
  },
  {
    "id": "nica02",
    "name": "Nice Caennais",
    "lat": 49.17606,
    "lon": -0.384843
  },
  {
    "id": "chev02",
    "name": "Chevaliers",
    "lat": 49.176918,
    "lon": -0.402044
  },
  {
    "id": "rosel01",
    "name": "Rosel Bourg",
    "lat": 49.228394,
    "lon": -0.459349
  },
  {
    "id": "pubb01",
    "name": "Putot Bourg",
    "lat": 49.21138,
    "lon": -0.542408
  },
  {
    "id": "cope21",
    "name": "Copernic",
    "lat": 49.198654,
    "lon": -0.359245
  },
  {
    "id": "p27j01",
    "name": "Place du 27 Juin",
    "lat": 49.187168,
    "lon": -0.446
  },
  {
    "id": "festy01",
    "name": "Festyland",
    "lat": 49.186386,
    "lon": -0.429841
  },
  {
    "id": "burr02",
    "name": "Burrator",
    "lat": 49.251385,
    "lon": -0.3722
  },
  {
    "id": "rpdo01",
    "name": "Port de Plaisance",
    "lat": 49.180504,
    "lon": -0.350574
  },
  {
    "id": "paor02",
    "name": "Parc d'Ornano",
    "lat": 49.188965,
    "lon": -0.348382
  },
  {
    "id": "lgrte02",
    "name": "La Grotte",
    "lat": 49.184345,
    "lon": -0.450675
  },
  {
    "id": "squa12",
    "name": "Square",
    "lat": 49.184643,
    "lon": -0.446755
  },
  {
    "id": "rpdo02",
    "name": "Port de Plaisance",
    "lat": 49.180447,
    "lon": -0.350702
  },
  {
    "id": "ruci01",
    "name": "Rue des Cités",
    "lat": 49.187832,
    "lon": -0.289648
  },
  {
    "id": "jeme02",
    "name": "Jean Mermoz",
    "lat": 49.16877,
    "lon": -0.330002
  },
  {
    "id": "chr01",
    "name": "CHR",
    "lat": 49.189884,
    "lon": -0.344768
  },
  {
    "id": "quat11",
    "name": "Château Quatrans",
    "lat": 49.185001,
    "lon": -0.363367
  },
  {
    "id": "rdba01",
    "name": "Barentins",
    "lat": 49.1805,
    "lon": -0.271271
  },
  {
    "id": "vaba02",
    "name": "Vallée Barrey",
    "lat": 49.170959,
    "lon": -0.309958
  },
  {
    "id": "htha02",
    "name": "Hauts de Thaon",
    "lat": 49.255692,
    "lon": -0.456515
  },
  {
    "id": "lese01",
    "name": "Les Semeurs",
    "lat": 49.193199,
    "lon": -0.268607
  },
  {
    "id": "jocu02",
    "name": "Joliot Curie",
    "lat": 49.230434,
    "lon": -0.303093
  },
  {
    "id": "rher12",
    "name": "Rue d'Hérouville",
    "lat": 49.193848,
    "lon": -0.345537
  },
  {
    "id": "form",
    "name": "Formigny",
    "lat": 49.173389,
    "lon": -0.338756
  },
  {
    "id": "bocl02",
    "name": "Bois Claquet",
    "lat": 49.177635,
    "lon": -0.305255
  },
  {
    "id": "rtan01",
    "name": "Route d'Anisy",
    "lat": 49.242928,
    "lon": -0.405969
  },
  {
    "id": "vale01",
    "name": "Valeuse",
    "lat": 49.204052,
    "lon": -0.33512
  },
  {
    "id": "vale02",
    "name": "Valeuse",
    "lat": 49.203991,
    "lon": -0.334994
  },
  {
    "id": "rtro01",
    "name": "Route de Rouen",
    "lat": 49.173969,
    "lon": -0.330282
  },
  {
    "id": "madr02",
    "name": "Madrid",
    "lat": 49.144051,
    "lon": -0.346357
  },
  {
    "id": "madr01",
    "name": "Madrid",
    "lat": 49.143917,
    "lon": -0.346024
  },
  {
    "id": "memo02",
    "name": "Mémorial",
    "lat": 49.198471,
    "lon": -0.382962
  },
  {
    "id": "clho01",
    "name": "Clair Horizon",
    "lat": 49.158672,
    "lon": -0.351012
  },
  {
    "id": "mupl01",
    "name": "Musique en Plaine",
    "lat": 49.125267,
    "lon": -0.307827
  },
  {
    "id": "vaug01",
    "name": "Vaugueux",
    "lat": 49.185539,
    "lon": -0.360567
  },
  {
    "id": "debu01",
    "name": "Debussy",
    "lat": 49.140575,
    "lon": -0.354685
  },
  {
    "id": "gall",
    "name": "Venoix",
    "lat": 49.181019,
    "lon": -0.401302
  },
  {
    "id": "rotb01",
    "name": "Rots Bonny",
    "lat": 49.203686,
    "lon": -0.475706
  },
  {
    "id": "tour02",
    "name": "Tourterelles",
    "lat": 49.194794,
    "lon": -0.392418
  },
  {
    "id": "pc02",
    "name": "Place Courtonne",
    "lat": 49.183895,
    "lon": -0.356731
  },
  {
    "id": "clgr01",
    "name": "Le Clos",
    "lat": 49.14743,
    "lon": -0.287699
  },
  {
    "id": "rvi01",
    "name": "Accueil Renault Trucks",
    "lat": 49.212006,
    "lon": -0.29871
  },
  {
    "id": "mafo03",
    "name": "Maurice Fouques",
    "lat": 49.171108,
    "lon": -0.328522
  },
  {
    "id": "bourgu01",
    "name": "Bourgogne",
    "lat": 49.194427,
    "lon": -0.400354
  },
  {
    "id": "bourgu02",
    "name": "Bourgogne",
    "lat": 49.194382,
    "lon": -0.400722
  },
  {
    "id": "touv02",
    "name": "Tourville",
    "lat": 49.184551,
    "lon": -0.347508
  },
  {
    "id": "flor11",
    "name": "Les Florals",
    "lat": 49.193138,
    "lon": -0.375783
  },
  {
    "id": "C029A",
    "name": "Lycée Malherbe",
    "lat": 49.175949,
    "lon": -0.371003
  },
  {
    "id": "doau02",
    "name": "Docteur Auvray",
    "lat": 49.192982,
    "lon": -0.345498
  },
  {
    "id": "ifcl01",
    "name": "Clément Ader",
    "lat": 49.142673,
    "lon": -0.325148
  },
  {
    "id": "msol02",
    "name": "Soliers Mairie",
    "lat": 49.135223,
    "lon": -0.295216
  },
  {
    "id": "deca01",
    "name": "Decaen",
    "lat": 49.168625,
    "lon": -0.346938
  },
  {
    "id": "thfr01",
    "name": "Thibout de la Fresnaye",
    "lat": 49.185898,
    "lon": -0.380097
  },
  {
    "id": "sabo01",
    "name": "Sannerville Bourg",
    "lat": 49.17804,
    "lon": -0.220367
  },
  {
    "id": "rogo01",
    "name": "Rouge Gorge",
    "lat": 49.194427,
    "lon": -0.396295
  },
  {
    "id": "epin02",
    "name": "Epinette",
    "lat": 49.142796,
    "lon": -0.35454
  },
  {
    "id": "anjo01",
    "name": "Anjou",
    "lat": 49.141605,
    "lon": -0.355233
  },
  {
    "id": "psa01",
    "name": "Jean Mantelet",
    "lat": 49.156261,
    "lon": -0.320881
  },
  {
    "id": "stad02",
    "name": "Troarn Stade",
    "lat": 49.182137,
    "lon": -0.187363
  },
  {
    "id": "robl01",
    "name": "Roche Blanche",
    "lat": 49.139374,
    "lon": -0.356466
  },
  {
    "id": "vefo01",
    "name": "Fouquet",
    "lat": 49.185291,
    "lon": -0.344309
  },
  {
    "id": "prim02",
    "name": "Primevères",
    "lat": 49.213505,
    "lon": -0.540414
  },
  {
    "id": "ebor02",
    "name": "L'Orgueilleuse Eglise",
    "lat": 49.209782,
    "lon": -0.509947
  },
  {
    "id": "cimne01",
    "name": "Cimetière Nord-Est",
    "lat": 49.190941,
    "lon": -0.340887
  },
  {
    "id": "repa12",
    "name": "Halle Bérégovoy",
    "lat": 49.179157,
    "lon": -0.317688
  },
  {
    "id": "repa11",
    "name": "Halle Bérégovoy",
    "lat": 49.180019,
    "lon": -0.316965
  },
  {
    "id": "rust01",
    "name": "Rue du Stade",
    "lat": 49.179291,
    "lon": -0.226573
  },
  {
    "id": "rdca12",
    "name": "Rue des Carrières",
    "lat": 49.182659,
    "lon": -0.272386
  },
  {
    "id": "biat01",
    "name": "Presqu'Île",
    "lat": 49.181156,
    "lon": -0.348765
  },
  {
    "id": "clne02",
    "name": "ZA du Clos Neuf",
    "lat": 49.173283,
    "lon": -0.263733
  },
  {
    "id": "roct02",
    "name": "Rots Centre",
    "lat": 49.199562,
    "lon": -0.472477
  },
  {
    "id": "cimne02",
    "name": "Cimetière Nord-Est",
    "lat": 49.191048,
    "lon": -0.340988
  },
  {
    "id": "mafl01",
    "name": "Fleury Mairie",
    "lat": 49.147415,
    "lon": -0.377288
  },
  {
    "id": "mamo01",
    "name": "Mondeville Mairie",
    "lat": 49.177158,
    "lon": -0.320369
  },
  {
    "id": "pdra01",
    "name": "Parc des Drapeaux",
    "lat": 49.198238,
    "lon": -0.455557
  },
  {
    "id": "gema02",
    "name": "Georges Maudouit",
    "lat": 49.176907,
    "lon": -0.325937
  },
  {
    "id": "mocl01",
    "name": "Clopée",
    "lat": 49.182049,
    "lon": -0.316192
  },
  {
    "id": "bdva02",
    "name": "Vanier",
    "lat": 49.195816,
    "lon": -0.343634
  },
  {
    "id": "ruce02",
    "name": "Plateau",
    "lat": 49.181934,
    "lon": -0.308821
  },
  {
    "id": "COM_impd01_1",
    "name": "IMP",
    "lat": 49.177692,
    "lon": -0.27212
  },
  {
    "id": "ger01",
    "name": "Gernez",
    "lat": 49.193993,
    "lon": -0.38383
  },
  {
    "id": "COM_egcu01",
    "name": "Cuverville Eglise",
    "lat": 49.188713,
    "lon": -0.264546
  },
  {
    "id": "ger02",
    "name": "Gernez",
    "lat": 49.194057,
    "lon": -0.383737
  },
  {
    "id": "COM_corfre02",
    "name": "La Fresnaye",
    "lat": 49.154518,
    "lon": -0.327851
  },
  {
    "id": "espi02",
    "name": "Espinettes",
    "lat": 49.219231,
    "lon": -0.33982
  },
  {
    "id": "COM_fmar01_1",
    "name": "Ferme Marais",
    "lat": 49.179249,
    "lon": -0.30077
  },
  {
    "id": "rocc01",
    "name": "Zone Commerciale",
    "lat": 49.19799,
    "lon": -0.457113
  },
  {
    "id": "COM_lmhl01",
    "name": "Haut Lion",
    "lat": 49.301346,
    "lon": -0.326325
  },
  {
    "id": "fmar22",
    "name": "La Ferme Marais",
    "lat": 49.179424,
    "lon": -0.300941
  },
  {
    "id": "COM_sqpo02_1",
    "name": "Square Poppa",
    "lat": 49.177467,
    "lon": -0.386563
  },
  {
    "id": "cacu03",
    "name": "Callouins",
    "lat": 49.187603,
    "lon": -0.268982
  },
  {
    "id": "ARCOM@STA022",
    "name": "Luxembourg",
    "lat": 49.12093,
    "lon": -0.378159
  },
  {
    "id": "marcu01",
    "name": "MARIE CURIE",
    "lat": 49.213341,
    "lon": -0.345447
  },
  {
    "id": "COM_poin16",
    "name": "Poincaré",
    "lat": 49.165535,
    "lon": -0.342675
  },
  {
    "id": "marcu02",
    "name": "MARIE CURIE",
    "lat": 49.21336,
    "lon": -0.345625
  },
  {
    "id": "ARCOM@PUT020",
    "name": "Primevères",
    "lat": 49.213516,
    "lon": -0.540339
  },
  {
    "id": "lmp",
    "name": "LION PLAGE",
    "lat": 49.30608,
    "lon": -0.323903
  },
  {
    "id": "COM_pocr01_1",
    "name": "Pont Créon",
    "lat": 49.174683,
    "lon": -0.379032
  },
  {
    "id": "cste02",
    "name": "Calvaire Saint-Etienne",
    "lat": 49.18372,
    "lon": -0.38984
  },
  {
    "id": "COM_psld01",
    "name": "Périers Mairie",
    "lat": 49.257477,
    "lon": -0.339325
  },
  {
    "id": "istp01",
    "name": "Institution Saint-Pierre",
    "lat": 49.18293,
    "lon": -0.382806
  },
  {
    "id": "COM_libec11",
    "name": "Libéra",
    "lat": 49.188465,
    "lon": -0.298658
  },
  {
    "id": "cycr01",
    "name": "Cygne de Croix",
    "lat": 49.171238,
    "lon": -0.35393
  },
  {
    "id": "COM_hmcr02",
    "name": "Croix Rose",
    "lat": 49.281288,
    "lon": -0.316987
  },
  {
    "id": "gemo02",
    "name": "Général Moulin",
    "lat": 49.187428,
    "lon": -0.409859
  },
  {
    "id": "COM_mifa01",
    "name": "Michel Farré",
    "lat": 49.185635,
    "lon": -0.30324
  },
  {
    "id": "stmf02",
    "name": "Mendès France",
    "lat": 49.147846,
    "lon": -0.345527
  },
  {
    "id": "COM_masa01",
    "name": "Saint-Aubin Mairie",
    "lat": 49.2607,
    "lon": -0.286888
  },
  {
    "id": "lcha01",
    "name": "La Chapelle",
    "lat": 49.156895,
    "lon": -0.349754
  },
  {
    "id": "COM_becq02",
    "name": "Becquet",
    "lat": 49.278896,
    "lon": -0.298238
  },
  {
    "id": "cycr32",
    "name": "Union",
    "lat": 49.170078,
    "lon": -0.354802
  },
  {
    "id": "COM_egbe02",
    "name": "Bénouville Eglise",
    "lat": 49.246475,
    "lon": -0.276475
  },
  {
    "id": "cycr42",
    "name": "Union",
    "lat": 49.169956,
    "lon": -0.354974
  },
  {
    "id": "COM_boul01_1",
    "name": "Aiguillon",
    "lat": 49.171581,
    "lon": -0.414972
  },
  {
    "id": "bico01",
    "name": "Bicoquet",
    "lat": 49.183041,
    "lon": -0.379919
  },
  {
    "id": "COM_norm22_1",
    "name": "Normandial",
    "lat": 49.193344,
    "lon": -0.30198
  },
  {
    "id": "libe11",
    "name": "Libérateurs",
    "lat": 49.138714,
    "lon": -0.345093
  },
  {
    "id": "COM_stni01",
    "name": "Saint-Nicolas",
    "lat": 49.184258,
    "lon": -0.375231
  },
  {
    "id": "modi62",
    "name": "Modigliani",
    "lat": 49.154057,
    "lon": -0.34566
  },
  {
    "id": "1151030",
    "name": "Buron (anc. Arromanches)",
    "lat": 49.218189,
    "lon": -0.420017
  },
  {
    "id": "auve02",
    "name": "Auvergne",
    "lat": 49.137714,
    "lon": -0.356222
  },
  {
    "id": "COM_bret02",
    "name": "L' Enclos",
    "lat": 49.174347,
    "lon": -0.41263
  },
  {
    "id": "semi02",
    "name": "Séminaire",
    "lat": 49.185101,
    "lon": -0.395361
  },
  {
    "id": "COM_emmo01",
    "name": "Emile Mougins",
    "lat": 49.206242,
    "lon": -0.293469
  },
  {
    "id": "juve02",
    "name": "Jules Verne",
    "lat": 49.156681,
    "lon": -0.347221
  },
  {
    "id": "COM_esta01",
    "name": "Estapi",
    "lat": 49.215088,
    "lon": -0.405249
  },
  {
    "id": "chva12",
    "name": "Chemin du Val",
    "lat": 49.149452,
    "lon": -0.345145
  },
  {
    "id": "1150272",
    "name": "Poilus d'Orient",
    "lat": 49.185139,
    "lon": -0.382958
  },
  {
    "id": "blwa01",
    "name": "Black Watch",
    "lat": 49.140602,
    "lon": -0.342386
  },
  {
    "id": "1151170",
    "name": "Verson Collège",
    "lat": 49.156471,
    "lon": -0.45589
  },
  {
    "id": "cdfo02",
    "name": "Charles de Foucauld",
    "lat": 49.161385,
    "lon": -0.362737
  },
  {
    "id": "COM_pdgr01",
    "name": "Grande Cour",
    "lat": 49.258766,
    "lon": -0.343286
  },
  {
    "id": "pers01",
    "name": "Perspectives",
    "lat": 49.195648,
    "lon": -0.349074
  },
  {
    "id": "COM_avia01",
    "name": "Aviation",
    "lat": 49.163509,
    "lon": -0.349957
  },
  {
    "id": "stth01",
    "name": "Sainte-Thérèse",
    "lat": 49.170486,
    "lon": -0.338607
  },
  {
    "id": "COM_catt02_1",
    "name": "Cattehoulte",
    "lat": 49.164894,
    "lon": -0.332843
  },
  {
    "id": "cocl01",
    "name": "Couvrechef le Clos",
    "lat": 49.213394,
    "lon": -0.375332
  },
  {
    "id": "COM_zavb02",
    "name": "ZAC Vallée Barrey",
    "lat": 49.170074,
    "lon": -0.308984
  },
  {
    "id": "clda02",
    "name": "Clos de l'Avonde",
    "lat": 49.227367,
    "lon": -0.385197
  },
  {
    "id": "COM_grpl01",
    "name": "Grande Rue",
    "lat": 49.180611,
    "lon": -0.306943
  },
  {
    "id": "cu12",
    "name": "Cité U Lebisey",
    "lat": 49.200214,
    "lon": -0.353551
  },
  {
    "id": "COM_coqu02_1",
    "name": "Coquelicots",
    "lat": 49.218697,
    "lon": -0.367497
  },
  {
    "id": "clsm01",
    "name": "Clos Saint-Marc",
    "lat": 49.211491,
    "lon": -0.373283
  },
  {
    "id": "COM_pote01",
    "name": "Poterie",
    "lat": 49.218857,
    "lon": -0.387457
  },
  {
    "id": "ceau01",
    "name": "Fleury Château d'Eau",
    "lat": 49.152775,
    "lon": -0.370622
  },
  {
    "id": "COM_cisu01",
    "name": "Cités Suédoises",
    "lat": 49.207623,
    "lon": -0.297464
  },
  {
    "id": "lava02",
    "name": "Langevin Wallon",
    "lat": 49.227535,
    "lon": -0.306568
  },
  {
    "id": "COM_citis11",
    "name": "CITIS (poteau provisoire)",
    "lat": 49.211678,
    "lon": -0.356028
  },
  {
    "id": "pabl01",
    "name": "Paitis Blancs",
    "lat": 49.126625,
    "lon": -0.385945
  },
  {
    "id": "COM_chse02",
    "name": "Kiruna",
    "lat": 49.205811,
    "lon": -0.299827
  },
  {
    "id": "burla01",
    "name": "Bures Lavoir",
    "lat": 49.203712,
    "lon": -0.177061
  },
  {
    "id": "COM_dldt01_1",
    "name": "Tassigny",
    "lat": 49.201778,
    "lon": -0.387777
  },
  {
    "id": "teav22",
    "name": "Terres d'Avenir",
    "lat": 49.231419,
    "lon": -0.294358
  },
  {
    "id": "COM_ruene01",
    "name": "Energie",
    "lat": 49.216518,
    "lon": -0.369675
  },
  {
    "id": "pihe12",
    "name": "Pierre Heuzé",
    "lat": 49.19886,
    "lon": -0.346868
  },
  {
    "id": "COM_char02_1",
    "name": "Molière",
    "lat": 49.192493,
    "lon": -0.393647
  },
  {
    "id": "cacc01",
    "name": "Campus 2 C. Commercial",
    "lat": 49.209301,
    "lon": -0.367185
  },
  {
    "id": "COM_bctre01",
    "name": "Bourguébus Centre",
    "lat": 49.121716,
    "lon": -0.298396
  },
  {
    "id": "bern11",
    "name": "Bernières",
    "lat": 49.182739,
    "lon": -0.358686
  },
  {
    "id": "COM_msol02",
    "name": "Soliers Mairie",
    "lat": 49.134941,
    "lon": -0.295448
  },
  {
    "id": "gira02",
    "name": "Girafe",
    "lat": 49.205685,
    "lon": -0.368491
  },
  {
    "id": "COM_clsm01_1",
    "name": "Clos Saint-Marc",
    "lat": 49.211433,
    "lon": -0.373215
  },
  {
    "id": "vicl02",
    "name": "Coopérative",
    "lat": 49.233654,
    "lon": -0.413452
  },
  {
    "id": "COM_gasn32",
    "name": "Gare SNCF",
    "lat": 49.175652,
    "lon": -0.349252
  },
  {
    "id": "mebou02",
    "name": "Mesnil Bourg",
    "lat": 49.204094,
    "lon": -0.183106
  },
  {
    "id": "ARCOM@MOU003",
    "name": "Mouen Mairie",
    "lat": 49.145782,
    "lon": -0.485292
  },
  {
    "id": "gira01",
    "name": "Girafe",
    "lat": 49.20686,
    "lon": -0.367853
  },
  {
    "id": "COM_clep12",
    "name": "Clos de l'Epine",
    "lat": 49.23373,
    "lon": -0.388739
  },
  {
    "id": "plsm02",
    "name": "Place Saint-Martin",
    "lat": 49.183834,
    "lon": -0.369921
  },
  {
    "id": "COM_parp01_1",
    "name": "Pasteur",
    "lat": 49.173943,
    "lon": -0.335719
  },
  {
    "id": "fpac02",
    "name": "Afpa",
    "lat": 49.191212,
    "lon": -0.38323
  },
  {
    "id": "COM_5con01_1",
    "name": "5 Continents",
    "lat": 49.202118,
    "lon": -0.382226
  },
  {
    "id": "poas01",
    "name": "Collège Monod",
    "lat": 49.20599,
    "lon": -0.378386
  },
  {
    "id": "COM_stur02",
    "name": "Lycée Sainte-Ursule",
    "lat": 49.200996,
    "lon": -0.380324
  },
  {
    "id": "stur02",
    "name": "Lycée Sainte-Ursule",
    "lat": 49.200932,
    "lon": -0.379957
  },
  {
    "id": "COM_stoc01_1",
    "name": "Stockholm",
    "lat": 49.18858,
    "lon": -0.389689
  },
  {
    "id": "stur01",
    "name": "Lycée Sainte-Ursule",
    "lat": 49.201057,
    "lon": -0.380691
  },
  {
    "id": "COM_etri01_1",
    "name": "Etrier",
    "lat": 49.193253,
    "lon": -0.369552
  },
  {
    "id": "etri01",
    "name": "Etrier",
    "lat": 49.193447,
    "lon": -0.369713
  },
  {
    "id": "COM_gddi02",
    "name": "Grâce de Dieu",
    "lat": 49.161346,
    "lon": -0.360201
  },
  {
    "id": "etri02",
    "name": "Etrier",
    "lat": 49.193062,
    "lon": -0.369391
  },
  {
    "id": "COM_pl3602",
    "name": "Place du 36ème",
    "lat": 49.177826,
    "lon": -0.355831
  },
  {
    "id": "fadr02",
    "name": "Fac de Droit",
    "lat": 49.190353,
    "lon": -0.366958
  },
  {
    "id": "COM_jeja02",
    "name": "Jean Jaurès",
    "lat": 49.149139,
    "lon": -0.374723
  },
  {
    "id": "rese01",
    "name": "Reservoirs",
    "lat": 49.19022,
    "lon": -0.38518
  },
  {
    "id": "COM_bern11",
    "name": "Bernières",
    "lat": 49.182869,
    "lon": -0.358282
  },
  {
    "id": "bear02",
    "name": "Beauregard",
    "lat": 49.213539,
    "lon": -0.317033
  },
  {
    "id": "COM_ccgi01_1",
    "name": "Civisme",
    "lat": 49.182587,
    "lon": -0.274866
  },
  {
    "id": "feui12",
    "name": "Feuillantines",
    "lat": 49.226215,
    "lon": -0.309767
  },
  {
    "id": "COM_degm03_1",
    "name": "Grandes Murailles",
    "lat": 49.184631,
    "lon": -0.27042
  },
  {
    "id": "cisg02",
    "name": "St Gabriel",
    "lat": 49.187832,
    "lon": -0.3788
  },
  {
    "id": "COM_vime02_1",
    "name": "Métiers",
    "lat": 49.205242,
    "lon": -0.375904
  },
  {
    "id": "egcv02",
    "name": "Eglise Saint-Joseph",
    "lat": 49.192074,
    "lon": -0.391071
  },
  {
    "id": "COM_fove02",
    "name": "Fontaine Venoise",
    "lat": 49.175037,
    "lon": -0.400799
  },
  {
    "id": "lbij01",
    "name": "La Bijude",
    "lat": 49.228485,
    "lon": -0.370431
  },
  {
    "id": "COM_mada01",
    "name": "Centre Pénitentiaire",
    "lat": 49.141689,
    "lon": -0.31877
  },
  {
    "id": "rese02",
    "name": "Reservoirs",
    "lat": 49.189804,
    "lon": -0.38461
  },
  {
    "id": "COM_hech01",
    "name": "Henry Chéron",
    "lat": 49.171646,
    "lon": -0.398055
  },
  {
    "id": "emzo02",
    "name": "Emile Zola",
    "lat": 49.232582,
    "lon": -0.302682
  },
  {
    "id": "COM_pogr02",
    "name": "Pommier Gris",
    "lat": 49.160069,
    "lon": -0.332908
  },
  {
    "id": "plki01",
    "name": "Place Kieffer",
    "lat": 49.23217,
    "lon": -0.29856
  },
  {
    "id": "1150076",
    "name": "Bretteville Église",
    "lat": 49.166569,
    "lon": -0.413463
  },
  {
    "id": "bdva01",
    "name": "Vanier",
    "lat": 49.194992,
    "lon": -0.343882
  },
  {
    "id": "COM_abou02",
    "name": "Anciennes Boucheries",
    "lat": 49.182369,
    "lon": -0.374476
  },
  {
    "id": "feui11",
    "name": "Feuillantines",
    "lat": 49.225994,
    "lon": -0.309522
  },
  {
    "id": "COM_stmf02",
    "name": "Mendès France",
    "lat": 49.14793,
    "lon": -0.345504
  },
  {
    "id": "lepcc02",
    "name": "Lycée Claudel",
    "lat": 49.203156,
    "lon": -0.385452
  },
  {
    "id": "COM_cycr32_1",
    "name": "Union",
    "lat": 49.170017,
    "lon": -0.354888
  },
  {
    "id": "sabl02",
    "name": "Sablons",
    "lat": 49.194546,
    "lon": -0.370512
  },
  {
    "id": "COM_cheh01",
    "name": "Château d'Eau",
    "lat": 49.203316,
    "lon": -0.340042
  },
  {
    "id": "bdle41",
    "name": "Leroy",
    "lat": 49.173103,
    "lon": -0.343785
  },
  {
    "id": "COM_jeme02_1",
    "name": "Jean Mermoz",
    "lat": 49.168774,
    "lon": -0.329926
  },
  {
    "id": "rtca01",
    "name": "Route de Cabourg",
    "lat": 49.180027,
    "lon": -0.320533
  },
  {
    "id": "ARCOM@THA021",
    "name": "Place des Saules",
    "lat": 49.257202,
    "lon": -0.452773
  },
  {
    "id": "rtca02",
    "name": "Route de Cabourg",
    "lat": 49.179855,
    "lon": -0.321301
  },
  {
    "id": "COM_auve01",
    "name": "Auvergne",
    "lat": 49.137589,
    "lon": -0.355989
  },
  {
    "id": "masg02",
    "name": "Saint-Germain Mairie",
    "lat": 49.189037,
    "lon": -0.40908
  },
  {
    "id": "COM_lefo02",
    "name": "Léon Foucault",
    "lat": 49.20969,
    "lon": -0.350306
  },
  {
    "id": "stma01",
    "name": "Saint-Manvieu",
    "lat": 49.154049,
    "lon": -0.456465
  },
  {
    "id": "COM_modi42",
    "name": "Modigliani",
    "lat": 49.154381,
    "lon": -0.345044
  },
  {
    "id": "acaci01",
    "name": "Acacia",
    "lat": 49.181881,
    "lon": -0.183203
  },
  {
    "id": "COM_plan01",
    "name": "Planitre",
    "lat": 49.186882,
    "lon": -0.402142
  },
  {
    "id": "masg01",
    "name": "Saint-Germain Mairie",
    "lat": 49.189072,
    "lon": -0.409772
  },
  {
    "id": "COM_euma02",
    "name": "Eugène Maës",
    "lat": 49.176739,
    "lon": -0.38887
  },
  {
    "id": "pldc12",
    "name": "Place Des Canadiens",
    "lat": 49.18911,
    "lon": -0.414667
  },
  {
    "id": "COM_cam502_1",
    "name": "Campus 5",
    "lat": 49.208645,
    "lon": -0.352051
  },
  {
    "id": "grbo02",
    "name": "Grand Bois",
    "lat": 49.150642,
    "lon": -0.468383
  },
  {
    "id": "COM_ecro01",
    "name": "Rots Ecole",
    "lat": 49.206402,
    "lon": -0.47687
  },
  {
    "id": "quha12",
    "name": "Quai Hamelin",
    "lat": 49.177086,
    "lon": -0.353865
  },
  {
    "id": "COM_hdvi01",
    "name": "Ifs Hôtel de Ville",
    "lat": 49.137089,
    "lon": -0.350806
  },
  {
    "id": "chga01",
    "name": "Lycée de Gaulle",
    "lat": 49.184517,
    "lon": -0.379544
  },
  {
    "id": "COM_stcme02",
    "name": "Stade Claude Mercier",
    "lat": 49.177582,
    "lon": -0.390759
  },
  {
    "id": "mafo02",
    "name": "Maurice Fouques",
    "lat": 49.171364,
    "lon": -0.328187
  },
  {
    "id": "COM_chva12_1",
    "name": "Chemin du Val",
    "lat": 49.149956,
    "lon": -0.344788
  },
  {
    "id": "dubn01",
    "name": "Dubna",
    "lat": 49.214565,
    "lon": -0.355029
  },
  {
    "id": "COM_colb02_1",
    "name": "Colbert",
    "lat": 49.226807,
    "lon": -0.303079
  },
  {
    "id": "rbas02",
    "name": "Rue Basse",
    "lat": 49.18539,
    "lon": -0.353024
  },
  {
    "id": "COM_memo02",
    "name": "Mémorial",
    "lat": 49.198559,
    "lon": -0.382576
  },
  {
    "id": "cabr01",
    "name": "Cambridge",
    "lat": 49.217056,
    "lon": -0.35461
  },
  {
    "id": "COM_jafa01",
    "name": "Jardins Familiaux",
    "lat": 49.211544,
    "lon": -0.320597
  },
  {
    "id": "CAI021A",
    "name": "Cairon Château",
    "lat": 49.238441,
    "lon": -0.450667
  },
  {
    "id": "COM_pfoc01",
    "name": "Place Foch",
    "lat": 49.177372,
    "lon": -0.359593
  },
  {
    "id": "sj01",
    "name": "Saint-Jean Eglise",
    "lat": 49.180828,
    "lon": -0.358381
  },
  {
    "id": "COM_rotb02",
    "name": "Rots Bonny",
    "lat": 49.20364,
    "lon": -0.475683
  },
  {
    "id": "zimo01",
    "name": "Mondeville ZI",
    "lat": 49.165009,
    "lon": -0.309529
  },
  {
    "id": "COM_plma",
    "name": "Place de la Mare",
    "lat": 49.186878,
    "lon": -0.366462
  },
  {
    "id": "lbru01",
    "name": "La Bruyère",
    "lat": 49.143562,
    "lon": -0.492773
  },
  {
    "id": "COM_stor02",
    "name": "Stade d'Ornano",
    "lat": 49.180809,
    "lon": -0.39678
  },
  {
    "id": "toce02",
    "name": "Tourville Centre",
    "lat": 49.140789,
    "lon": -0.503423
  },
  {
    "id": "COM_rorn11",
    "name": "Gare - Rives de l'Orne",
    "lat": 49.178566,
    "lon": -0.350629
  },
  {
    "id": "jean02",
    "name": "Jean XXIII",
    "lat": 49.194691,
    "lon": -0.326788
  },
  {
    "id": "COM_madr02_1",
    "name": "Madrid",
    "lat": 49.143986,
    "lon": -0.346191
  },
  {
    "id": "beri11",
    "name": "Beau Rivage",
    "lat": 49.217857,
    "lon": -0.351208
  },
  {
    "id": "COM_chuo02",
    "name": "Mont Coco",
    "lat": 49.205925,
    "lon": -0.361533
  },
  {
    "id": "podo01",
    "name": "Poilus d'Orient",
    "lat": 49.18512,
    "lon": -0.383018
  },
  {
    "id": "COM_chfl22",
    "name": "Chemin de Fleury",
    "lat": 49.152744,
    "lon": -0.345383
  },
  {
    "id": "robo01",
    "name": "Robert Bosch",
    "lat": 49.166492,
    "lon": -0.313951
  },
  {
    "id": "COM_cadi14",
    "name": "Café des Images",
    "lat": 49.202183,
    "lon": -0.332303
  },
  {
    "id": "robo02",
    "name": "Robert Bosch",
    "lat": 49.166359,
    "lon": -0.313546
  },
  {
    "id": "COM_chdc01",
    "name": "Château",
    "lat": 49.184406,
    "lon": -0.360845
  },
  {
    "id": "berr02",
    "name": "Berry",
    "lat": 49.192608,
    "lon": -0.399998
  },
  {
    "id": "COM_bourgu02",
    "name": "Bourgogne",
    "lat": 49.194405,
    "lon": -0.400538
  },
  {
    "id": "ceve01",
    "name": "Verson Centre",
    "lat": 49.156284,
    "lon": -0.448656
  },
  {
    "id": "COM_zaif02",
    "name": "Ifs ZA",
    "lat": 49.142063,
    "lon": -0.340588
  },
  {
    "id": "bout02",
    "name": "Boutrois",
    "lat": 49.167599,
    "lon": -0.351532
  },
  {
    "id": "COM_deba11",
    "name": "Débarquement",
    "lat": 49.202824,
    "lon": -0.392417
  },
  {
    "id": "fond01",
    "name": "La Fonderie BBC",
    "lat": 49.210617,
    "lon": -0.33741
  },
  {
    "id": "COM_inle01",
    "name": "Institut Lemonnier",
    "lat": 49.193584,
    "lon": -0.349851
  },
  {
    "id": "laro11",
    "name": "La Rochelle",
    "lat": 49.187458,
    "lon": -0.334191
  },
  {
    "id": "COM_mjc01",
    "name": "PAJ MJC",
    "lat": 49.200317,
    "lon": -0.332885
  },
  {
    "id": "ropo01",
    "name": "Rond Point",
    "lat": 49.149883,
    "lon": -0.470823
  },
  {
    "id": "COM_teav22",
    "name": "Terres d'Avenir",
    "lat": 49.232304,
    "lon": -0.294531
  },
  {
    "id": "sthu01",
    "name": "Saint-Hubert",
    "lat": 49.191597,
    "lon": -0.328356
  },
  {
    "id": "COM_jevi02_3",
    "name": "Jean Vilar",
    "lat": 49.14986,
    "lon": -0.350292
  },
  {
    "id": "laro22",
    "name": "La Rochelle",
    "lat": 49.18763,
    "lon": -0.333706
  },
  {
    "id": "COM_stasb01",
    "name": "Place de la République",
    "lat": 49.182301,
    "lon": -0.363656
  },
  {
    "id": "hdvc02",
    "name": "Hôtel de Ville Quai 2",
    "lat": 49.181454,
    "lon": -0.370537
  },
  {
    "id": "COM_coao02",
    "name": "Colline aux Oiseaux",
    "lat": 49.198109,
    "lon": -0.388732
  },
  {
    "id": "ruau02",
    "name": "Rue d'Auge",
    "lat": 49.174767,
    "lon": -0.343075
  },
  {
    "id": "COM_inno11",
    "name": "Innovaparc",
    "lat": 49.188843,
    "lon": -0.304035
  },
  {
    "id": "pl3601",
    "name": "Place du 36ème",
    "lat": 49.177956,
    "lon": -0.355885
  },
  {
    "id": "COM_hube01",
    "name": "Hubert Centre",
    "lat": 49.127419,
    "lon": -0.313298
  },
  {
    "id": "delu02",
    "name": "Demi-Lune",
    "lat": 49.17469,
    "lon": -0.339428
  },
  {
    "id": "COM_pers01_1",
    "name": "Perspectives",
    "lat": 49.195667,
    "lon": -0.34891
  },
  {
    "id": "3dib01",
    "name": "3ème DIB",
    "lat": 49.216648,
    "lon": -0.340646
  },
  {
    "id": "COM_flor01",
    "name": "Les Florals",
    "lat": 49.192989,
    "lon": -0.375736
  },
  {
    "id": "scgt03",
    "name": "Sainte-Croix",
    "lat": 49.232372,
    "lon": -0.558697
  },
  {
    "id": "COM_albe22",
    "name": "Albert 1er",
    "lat": 49.17028,
    "lon": -0.347773
  },
  {
    "id": "ablu02",
    "name": "Abbé Lucas",
    "lat": 49.19635,
    "lon": -0.326408
  },
  {
    "id": "COM_zaco11",
    "name": "Colombelles ZA",
    "lat": 49.194847,
    "lon": -0.293398
  },
  {
    "id": "espi01",
    "name": "Espinettes",
    "lat": 49.218773,
    "lon": -0.340153
  },
  {
    "id": "COM_vefo02_1",
    "name": "Fouquet",
    "lat": 49.185265,
    "lon": -0.344377
  },
  {
    "id": "lac01",
    "name": "Lac",
    "lat": 49.219971,
    "lon": -0.348491
  },
  {
    "id": "COM_mocl02",
    "name": "Clopée",
    "lat": 49.181999,
    "lon": -0.316114
  },
  {
    "id": "ecco21",
    "name": "Colombelles Ecole",
    "lat": 49.203384,
    "lon": -0.302707
  },
  {
    "id": "COM_obsu22_1",
    "name": "Object'Ifs Sud",
    "lat": 49.139114,
    "lon": -0.330528
  },
  {
    "id": "l3va02",
    "name": "Les 3 Vallées",
    "lat": 49.204399,
    "lon": -0.293402
  },
  {
    "id": "COM_gema01_1",
    "name": "Georges Maudouit",
    "lat": 49.176849,
    "lon": -0.325728
  },
  {
    "id": "esta01",
    "name": "Estapi",
    "lat": 49.215054,
    "lon": -0.404995
  },
  {
    "id": "COM_thfr01_1",
    "name": "Thibout de la Fresnaye",
    "lat": 49.186047,
    "lon": -0.37981
  },
  {
    "id": "pote02",
    "name": "Poterie",
    "lat": 49.218895,
    "lon": -0.387425
  },
  {
    "id": "COM_pomp02",
    "name": "Pompidou",
    "lat": 49.181263,
    "lon": -0.399046
  },
  {
    "id": "pote01",
    "name": "Poterie",
    "lat": 49.218819,
    "lon": -0.387489
  },
  {
    "id": "ARCOM@SAC022",
    "name": "La Jalousie",
    "lat": 49.074368,
    "lon": -0.296246
  },
  {
    "id": "stceg01",
    "name": "Saint-Contest Eglise",
    "lat": 49.214153,
    "lon": -0.402181
  },
  {
    "id": "COM_ruti01",
    "name": "Tisserands",
    "lat": 49.207195,
    "lon": -0.376741
  },
  {
    "id": "chuo01",
    "name": "Mont Coco",
    "lat": 49.20628,
    "lon": -0.361428
  },
  {
    "id": "COM_feui11",
    "name": "Feuillantines",
    "lat": 49.226105,
    "lon": -0.309645
  },
  {
    "id": "cp01",
    "name": "Collège Hawking",
    "lat": 49.157932,
    "lon": -0.360958
  },
  {
    "id": "COM_stpa01",
    "name": "Collège Saint-Paul",
    "lat": 49.184273,
    "lon": -0.399177
  },
  {
    "id": "cobo02",
    "name": "Couvrechef Bourg",
    "lat": 49.212151,
    "lon": -0.379177
  },
  {
    "id": "COM_caef12",
    "name": "Campus Efficience",
    "lat": 49.188446,
    "lon": -0.308934
  },
  {
    "id": "deli01",
    "name": "Délivrande",
    "lat": 49.190193,
    "lon": -0.359502
  },
  {
    "id": "COM_majo01_1",
    "name": "Maréchal Joffre",
    "lat": 49.171555,
    "lon": -0.349395
  },
  {
    "id": "epron02",
    "name": "Epron Mairie",
    "lat": 49.22337,
    "lon": -0.371136
  },
  {
    "id": "COM_csp02",
    "name": "Calvaire Saint-Pierre",
    "lat": 49.19791,
    "lon": -0.364001
  },
  {
    "id": "euva02",
    "name": "Eugène Varlin",
    "lat": 49.200336,
    "lon": -0.301426
  },
  {
    "id": "COM_alle01",
    "name": "Allende",
    "lat": 49.203781,
    "lon": -0.343112
  },
  {
    "id": "rega02",
    "name": "Egalité",
    "lat": 49.207111,
    "lon": -0.294762
  },
  {
    "id": "COM_cana01",
    "name": "Canal",
    "lat": 49.199627,
    "lon": -0.323964
  },
  {
    "id": "casp02",
    "name": "Calvaire Saint-Pierre",
    "lat": 49.198948,
    "lon": -0.364067
  },
  {
    "id": "COM_sthu12",
    "name": "Saint Hubert",
    "lat": 49.191505,
    "lon": -0.328413
  },
  {
    "id": "paca01",
    "name": "Pays de Caen",
    "lat": 49.196644,
    "lon": -0.299028
  },
  {
    "id": "COM_mo01_1",
    "name": "Modigliani",
    "lat": 49.15435,
    "lon": -0.346195
  },
  {
    "id": "avia12",
    "name": "Aviation",
    "lat": 49.162907,
    "lon": -0.350272
  },
  {
    "id": "COM_che02_3",
    "name": "Château d'Eau",
    "lat": 49.202732,
    "lon": -0.340224
  },
  {
    "id": "maca21",
    "name": "Cambes Mairie",
    "lat": 49.232239,
    "lon": -0.385238
  },
  {
    "id": "COM_mart01",
    "name": "Martray",
    "lat": 49.172359,
    "lon": -0.282141
  },
  {
    "id": "zac02",
    "name": "Hauts de l'Orne",
    "lat": 49.152897,
    "lon": -0.361031
  },
  {
    "id": "COM_rmal02",
    "name": "Rue de Malon",
    "lat": 49.209667,
    "lon": -0.377523
  },
  {
    "id": "zavil",
    "name": "ZA au Village",
    "lat": 49.227726,
    "lon": -0.368593
  },
  {
    "id": "COM_ifcl01",
    "name": "Clément Ader",
    "lat": 49.142731,
    "lon": -0.325277
  },
  {
    "id": "norv01",
    "name": "Norvège",
    "lat": 49.236958,
    "lon": -0.415632
  },
  {
    "id": "COM_crots01",
    "name": "Zone Commerciale",
    "lat": 49.198055,
    "lon": -0.45729
  },
  {
    "id": "pr02",
    "name": "Presqu'Ile",
    "lat": 49.181751,
    "lon": -0.34792
  },
  {
    "id": "COM_cs02_1",
    "name": "CROUS-SUAPS",
    "lat": 49.193768,
    "lon": -0.363681
  },
  {
    "id": "rmal02",
    "name": "Rue de Malon",
    "lat": 49.209812,
    "lon": -0.377558
  },
  {
    "id": "1151173",
    "name": "Rond Point",
    "lat": 49.149849,
    "lon": -0.471116
  },
  {
    "id": "clep12",
    "name": "Clos de l'Epine",
    "lat": 49.233826,
    "lon": -0.388668
  },
  {
    "id": "COM_malo01_1",
    "name": "Louvigny Mairie",
    "lat": 49.156895,
    "lon": -0.389917
  },
  {
    "id": "ci02",
    "name": "CITIS",
    "lat": 49.211468,
    "lon": -0.356802
  },
  {
    "id": "COM_rust02",
    "name": "Rue du Stade",
    "lat": 49.179291,
    "lon": -0.226573
  },
  {
    "id": "ci01",
    "name": "CITIS",
    "lat": 49.211365,
    "lon": -0.356508
  },
  {
    "id": "COM_lebo01",
    "name": "Le Bois",
    "lat": 49.212006,
    "lon": -0.330546
  },
  {
    "id": "rdo01",
    "name": "Gare - Rives de l'Orne",
    "lat": 49.178387,
    "lon": -0.35067
  },
  {
    "id": "COM_fala01",
    "name": "Falaise",
    "lat": 49.167191,
    "lon": -0.351237
  },
  {
    "id": "copl02",
    "name": "Colleville Plage",
    "lat": 49.291412,
    "lon": -0.283165
  },
  {
    "id": "COM_rice02_1",
    "name": "Riva Centre",
    "lat": 49.284508,
    "lon": -0.261776
  },
  {
    "id": "chse02",
    "name": "Kiruna",
    "lat": 49.205238,
    "lon": -0.300635
  },
  {
    "id": "COM_mitt02",
    "name": "Mitterrand",
    "lat": 49.299683,
    "lon": -0.328946
  },
  {
    "id": "cacc02",
    "name": "Campus 2 C. Commercial",
    "lat": 49.209713,
    "lon": -0.367253
  },
  {
    "id": "COM_pebri01",
    "name": "Pégasus Bridge",
    "lat": 49.242855,
    "lon": -0.278838
  },
  {
    "id": "ifbr02",
    "name": "Ifs Bras",
    "lat": 49.135456,
    "lon": -0.322192
  },
  {
    "id": "COM_valo01",
    "name": "Val d'Odon",
    "lat": 49.131695,
    "lon": -0.502481
  },
  {
    "id": "hfou12",
    "name": "Hauts Fourneaux",
    "lat": 49.191589,
    "lon": -0.301856
  },
  {
    "id": "COM_chpi",
    "name": "Champ Picot",
    "lat": 49.192135,
    "lon": -0.271824
  },
  {
    "id": "gala02",
    "name": "Galante",
    "lat": 49.303211,
    "lon": -0.327125
  },
  {
    "id": "COM_abar01",
    "name": "Abbaye",
    "lat": 49.197037,
    "lon": -0.413012
  },
  {
    "id": "hfou11",
    "name": "Hauts Fourneaux",
    "lat": 49.192028,
    "lon": -0.301535
  },
  {
    "id": "COM_eclo02",
    "name": "Louvigny Ecole",
    "lat": 49.157455,
    "lon": -0.393552
  },
  {
    "id": "cb02",
    "name": "Campus 4",
    "lat": 49.209087,
    "lon": -0.358735
  },
  {
    "id": "COM_louvi",
    "name": "Michelet",
    "lat": 49.157307,
    "lon": -0.40059
  },
  {
    "id": "cdna02",
    "name": "Côte de Nacre",
    "lat": 49.210873,
    "lon": -0.362238
  },
  {
    "id": "COM_sieu01",
    "name": "Sieurcas",
    "lat": 49.263184,
    "lon": -0.293497
  },
  {
    "id": "stmi02",
    "name": "Saint-Michel",
    "lat": 49.175339,
    "lon": -0.355098
  },
  {
    "id": "COM_corf01",
    "name": "Fossettes",
    "lat": 49.149593,
    "lon": -0.323593
  },
  {
    "id": "cb01",
    "name": "Campus 4",
    "lat": 49.208965,
    "lon": -0.358935
  },
  {
    "id": "COM_ruda02",
    "name": "Damozanne",
    "lat": 49.182426,
    "lon": -0.383802
  },
  {
    "id": "ruti02",
    "name": "Tisserands",
    "lat": 49.207554,
    "lon": -0.37689
  },
  {
    "id": "COM_eggi01_1",
    "name": "Giberville Eglise",
    "lat": 49.182907,
    "lon": -0.290035
  },
  {
    "id": "cule01",
    "name": "Cité U Lebisey",
    "lat": 49.199669,
    "lon": -0.354209
  },
  {
    "id": "COM_cope21_2",
    "name": "Copernic",
    "lat": 49.198532,
    "lon": -0.360766
  },
  {
    "id": "li02",
    "name": "Liberté",
    "lat": 49.160767,
    "lon": -0.343047
  },
  {
    "id": "COM_rbas02",
    "name": "Rue Basse",
    "lat": 49.185425,
    "lon": -0.353081
  },
  {
    "id": "li01",
    "name": "Liberté",
    "lat": 49.16066,
    "lon": -0.343316
  },
  {
    "id": "ARCOM@VER027",
    "name": "Hameau Foulon",
    "lat": 49.15247,
    "lon": -0.462102
  },
  {
    "id": "gall21",
    "name": "Gallieni",
    "lat": 49.181984,
    "lon": -0.402683
  },
  {
    "id": "COM_cabr01",
    "name": "Cambridge",
    "lat": 49.217201,
    "lon": -0.354508
  },
  {
    "id": "l2eg12",
    "name": "Les 2 Eglises",
    "lat": 49.182148,
    "lon": -0.304511
  },
  {
    "id": "ARCOM@BSO020",
    "name": "Bretagne",
    "lat": 49.164467,
    "lon": -0.420336
  },
  {
    "id": "cbea02",
    "name": "Beaulieu Brazza",
    "lat": 49.183487,
    "lon": -0.407262
  },
  {
    "id": "COM_arde11_1",
    "name": "Ardenne",
    "lat": 49.199707,
    "lon": -0.412528
  },
  {
    "id": "lmp01",
    "name": "Lion Plage",
    "lat": 49.30587,
    "lon": -0.324016
  },
  {
    "id": "COM_rdpu01",
    "name": "Rue du Puits",
    "lat": 49.201294,
    "lon": -0.405989
  },
  {
    "id": "cbea01",
    "name": "Beaulieu Brazza",
    "lat": 49.183105,
    "lon": -0.406679
  },
  {
    "id": "COM_rech02",
    "name": "Résidence aux Champs",
    "lat": 49.205776,
    "lon": -0.428208
  },
  {
    "id": "gall22",
    "name": "Gallieni",
    "lat": 49.182114,
    "lon": -0.403184
  },
  {
    "id": "COM_lepo01",
    "name": "Les Pommiers",
    "lat": 49.158108,
    "lon": -0.442429
  },
  {
    "id": "bl02",
    "name": "Leroy",
    "lat": 49.17337,
    "lon": -0.344323
  },
  {
    "id": "COM_peva01",
    "name": "Petit Vallon",
    "lat": 49.182079,
    "lon": -0.266015
  },
  {
    "id": "bl01",
    "name": "Leroy",
    "lat": 49.173374,
    "lon": -0.344414
  },
  {
    "id": "ARCOM@MAT021",
    "name": "Les Vikings",
    "lat": 49.244843,
    "lon": -0.371457
  },
  {
    "id": "co02",
    "name": "Copernic",
    "lat": 49.198406,
    "lon": -0.359317
  },
  {
    "id": "COM_caau02_2",
    "name": "Calvaire",
    "lat": 49.20438,
    "lon": -0.424271
  },
  {
    "id": "gs02",
    "name": "Gare SNCF",
    "lat": 49.17593,
    "lon": -0.348402
  },
  {
    "id": "COM_lach01",
    "name": "La Chouette",
    "lat": 49.201672,
    "lon": -0.322327
  },
  {
    "id": "gs01",
    "name": "Gare SNCF",
    "lat": 49.175877,
    "lon": -0.348372
  },
  {
    "id": "COM_toce01_3",
    "name": "Tourville Centre",
    "lat": 49.140835,
    "lon": -0.50335
  },
  {
    "id": "cim01",
    "name": "Café des Images",
    "lat": 49.20248,
    "lon": -0.332433
  },
  {
    "id": "COM_deto02_1",
    "name": "Detolle",
    "lat": 49.183189,
    "lon": -0.385126
  },
  {
    "id": "cam511",
    "name": "Campus 5 (poteau provisoire)",
    "lat": 49.209358,
    "lon": -0.352117
  },
  {
    "id": "COM_hosm01",
    "name": "Horatio Smith",
    "lat": 49.201187,
    "lon": -0.364825
  },
  {
    "id": "mmou02",
    "name": "Mouen Mairie",
    "lat": 49.145798,
    "lon": -0.485389
  },
  {
    "id": "COM_vend12_1",
    "name": "Vendeuvre",
    "lat": 49.181763,
    "lon": -0.353212
  },
  {
    "id": "crre02",
    "name": "Creux au Renard",
    "lat": 49.170082,
    "lon": -0.402938
  },
  {
    "id": "1150749",
    "name": "Charmettes",
    "lat": 49.173164,
    "lon": -0.326091
  },
  {
    "id": "masa01",
    "name": "Saint-Aubin Mairie",
    "lat": 49.260605,
    "lon": -0.286732
  },
  {
    "id": "COM_ruci01",
    "name": "Rue des Cités",
    "lat": 49.187885,
    "lon": -0.289747
  },
  {
    "id": "lmbl02",
    "name": "Bas Lion",
    "lat": 49.302227,
    "lon": -0.318824
  },
  {
    "id": "COM_pesa01_1",
    "name": "Père Sanson",
    "lat": 49.200134,
    "lon": -0.368679
  },
  {
    "id": "ca02",
    "name": "Campus 2",
    "lat": 49.212547,
    "lon": -0.364448
  },
  {
    "id": "COM_cljo02",
    "name": "Clos Joli",
    "lat": 49.154713,
    "lon": -0.336071
  },
  {
    "id": "qdj02",
    "name": "Quai de Juillet",
    "lat": 49.178631,
    "lon": -0.353652
  },
  {
    "id": "COM_hamo01",
    "name": "Hauts de Mondeville",
    "lat": 49.172768,
    "lon": -0.304011
  },
  {
    "id": "qdj01",
    "name": "Quai de Juillet",
    "lat": 49.178596,
    "lon": -0.353725
  },
  {
    "id": "COM_rpdo01",
    "name": "Port de Plaisance",
    "lat": 49.180473,
    "lon": -0.350638
  },
  {
    "id": "qu02",
    "name": "Château Quatrans",
    "lat": 49.185299,
    "lon": -0.363791
  },
  {
    "id": "COM_avva02",
    "name": "Valeuse",
    "lat": 49.204021,
    "lon": -0.335057
  },
  {
    "id": "pr01",
    "name": "Presqu'île",
    "lat": 49.181675,
    "lon": -0.348002
  },
  {
    "id": "COM_orna01_1",
    "name": "Ornavik",
    "lat": 49.217003,
    "lon": -0.312533
  },
  {
    "id": "po02",
    "name": "Poincaré",
    "lat": 49.165447,
    "lon": -0.342742
  },
  {
    "id": "COM_volt02",
    "name": "Voltaire",
    "lat": 49.23243,
    "lon": -0.304866
  },
  {
    "id": "sc02",
    "name": "Saint-Clair",
    "lat": 49.203655,
    "lon": -0.329155
  },
  {
    "id": "COM_pojo02",
    "name": "Point du Jour",
    "lat": 49.180199,
    "lon": -0.297357
  },
  {
    "id": "etce12",
    "name": "Eterville Centre",
    "lat": 49.144108,
    "lon": -0.422597
  },
  {
    "id": "COM_list01",
    "name": "Lion Stade",
    "lat": 49.300346,
    "lon": -0.324166
  },
  {
    "id": "mabr01",
    "name": "Bretteville Mairie",
    "lat": 49.16576,
    "lon": -0.418172
  },
  {
    "id": "COM_hmma02",
    "name": "Hermanville Mairie",
    "lat": 49.286877,
    "lon": -0.31285
  },
  {
    "id": "etce01",
    "name": "Eterville Centre",
    "lat": 49.143635,
    "lon": -0.422736
  },
  {
    "id": "COM_jocu01",
    "name": "Joliot Curie",
    "lat": 49.230362,
    "lon": -0.302925
  },
  {
    "id": "sc01",
    "name": "Saint-Clair",
    "lat": 49.203568,
    "lon": -0.329305
  },
  {
    "id": "COM_havi01_1",
    "name": "Haie Vigné",
    "lat": 49.179981,
    "lon": -0.383851
  },
  {
    "id": "vl02",
    "name": "Lux-Lépine",
    "lat": 49.171082,
    "lon": -0.341968
  },
  {
    "id": "COM_qdj02",
    "name": "Quai de Juillet",
    "lat": 49.178616,
    "lon": -0.353688
  },
  {
    "id": "gu01",
    "name": "Guynemer",
    "lat": 49.168446,
    "lon": -0.344015
  },
  {
    "id": "COM_stpi02_1",
    "name": "Saint-Pierre",
    "lat": 49.183773,
    "lon": -0.360041
  },
  {
    "id": "koeni11",
    "name": "Koenig",
    "lat": 49.175335,
    "lon": -0.433366
  },
  {
    "id": "COM_jv01",
    "name": "Jean Vilar",
    "lat": 49.15015,
    "lon": -0.351018
  },
  {
    "id": "50ac02",
    "name": "50 Acres",
    "lat": 49.16766,
    "lon": -0.410285
  },
  {
    "id": "COM_be01",
    "name": "Bernières",
    "lat": 49.182625,
    "lon": -0.357906
  },
  {
    "id": "re02",
    "name": "Résistance Saint-Jean",
    "lat": 49.180893,
    "lon": -0.356025
  },
  {
    "id": "COM_po01",
    "name": "Poincaré",
    "lat": 49.165462,
    "lon": -0.342777
  },
  {
    "id": "ac01",
    "name": "Place de l'Europe",
    "lat": 49.202599,
    "lon": -0.336622
  },
  {
    "id": "1151130",
    "name": "Pressoir",
    "lat": 49.139851,
    "lon": -0.507539
  },
  {
    "id": "prev11",
    "name": "Prévert",
    "lat": 49.120663,
    "lon": -0.383138
  },
  {
    "id": "COM_ci01",
    "name": "CITIS",
    "lat": 49.211418,
    "lon": -0.356655
  },
  {
    "id": "rocqu02",
    "name": "Rocquancourt Bourg",
    "lat": 49.094517,
    "lon": -0.323258
  },
  {
    "id": "COM_li01",
    "name": "Liberté",
    "lat": 49.160713,
    "lon": -0.343182
  },
  {
    "id": "mo02",
    "name": "Modigliani",
    "lat": 49.154362,
    "lon": -0.346044
  },
  {
    "id": "COM_co01",
    "name": "Copernic",
    "lat": 49.198444,
    "lon": -0.359387
  },
  {
    "id": "jeja02",
    "name": "Jean Jaurès",
    "lat": 49.149155,
    "lon": -0.374774
  },
  {
    "id": "COM_escv02",
    "name": "Espérance",
    "lat": 49.192951,
    "lon": -0.383226
  },
  {
    "id": "cs01",
    "name": "CROUS-SUAPS",
    "lat": 49.193756,
    "lon": -0.363557
  },
  {
    "id": "COM_rese02",
    "name": "Réservoirs",
    "lat": 49.190014,
    "lon": -0.384895
  },
  {
    "id": "hofor01",
    "name": "Hôtel Fortuné",
    "lat": 49.226978,
    "lon": -0.561451
  },
  {
    "id": "COM_av02",
    "name": "Aviation",
    "lat": 49.163322,
    "lon": -0.349137
  },
  {
    "id": "camb01",
    "name": "Le Parc",
    "lat": 49.23584,
    "lon": -0.386222
  },
  {
    "id": "COM_bdle42",
    "name": "Leroy",
    "lat": 49.173164,
    "lon": -0.343561
  },
  {
    "id": "camb02",
    "name": "Le Parc",
    "lat": 49.235832,
    "lon": -0.386321
  },
  {
    "id": "COM_pr02",
    "name": "Presqu'Île",
    "lat": 49.181713,
    "lon": -0.347961
  },
  {
    "id": "casp41",
    "name": "Calvaire Saint-Pierre",
    "lat": 49.19875,
    "lon": -0.364189
  },
  {
    "id": "1150859",
    "name": "Rocquancourt Bourg",
    "lat": 49.094517,
    "lon": -0.323258
  },
  {
    "id": "juge02",
    "name": "Jules Guesde",
    "lat": 49.143909,
    "lon": -0.375759
  },
  {
    "id": "COM_2arr02",
    "name": "2ème Arrêt",
    "lat": 49.197857,
    "lon": -0.204472
  },
  {
    "id": "coqu11",
    "name": "Coquelicots",
    "lat": 49.218639,
    "lon": -0.367676
  },
  {
    "id": "COM_rtha01_1",
    "name": "Route d'Harcourt",
    "lat": 49.156342,
    "lon": -0.369238
  },
  {
    "id": "edim11",
    "name": "Édimbourg",
    "lat": 49.192432,
    "lon": -0.359716
  },
  {
    "id": "COM_lelu01",
    "name": "Les Luthiers",
    "lat": 49.20908,
    "lon": -0.37505
  },
  {
    "id": "rdim02",
    "name": "Rue de la Dîme",
    "lat": 49.233814,
    "lon": -0.520552
  },
  {
    "id": "COM_clha02",
    "name": "Clos du Hamel",
    "lat": 49.11813,
    "lon": -0.374746
  },
  {
    "id": "lech02",
    "name": "Lechesne",
    "lat": 49.169781,
    "lon": -0.361189
  },
  {
    "id": "1150391",
    "name": "Basse Allemagne",
    "lat": 49.1399,
    "lon": -0.375978
  },
  {
    "id": "cljo01",
    "name": "Clos Joli",
    "lat": 49.154774,
    "lon": -0.336074
  },
  {
    "id": "COM_osty02",
    "name": "Ostiguy",
    "lat": 49.128887,
    "lon": -0.377099
  },
  {
    "id": "phle01",
    "name": "Philippe Lebon",
    "lat": 49.15749,
    "lon": -0.297848
  },
  {
    "id": "1150260",
    "name": "Édimbourg",
    "lat": 49.192802,
    "lon": -0.359708
  },
  {
    "id": "stoc11",
    "name": "Stockholm",
    "lat": 49.188526,
    "lon": -0.390056
  },
  {
    "id": "COM_cind02_1",
    "name": "Cindais",
    "lat": 49.128044,
    "lon": -0.379292
  },
  {
    "id": "stoc22",
    "name": "Clos des Roses",
    "lat": 49.187149,
    "lon": -0.39263
  },
  {
    "id": "ARCOM@C096",
    "name": "Cité U Lebisey",
    "lat": 49.199776,
    "lon": -0.354204
  },
  {
    "id": "lefr02",
    "name": "Lefrançois",
    "lat": 49.168736,
    "lon": -0.362094
  },
  {
    "id": "ARCOM@BIE007",
    "name": "Biéville Château",
    "lat": 49.244213,
    "lon": -0.321788
  },
  {
    "id": "lerm11",
    "name": "Leroy Merlin",
    "lat": 49.156639,
    "lon": -0.292431
  },
  {
    "id": "COM_avbe02",
    "name": "Berlin",
    "lat": 49.199825,
    "lon": -0.337617
  },
  {
    "id": "lelu01",
    "name": "Les Luthiers",
    "lat": 49.208843,
    "lon": -0.375984
  },
  {
    "id": "COM_conn",
    "name": "Hérouville Piscine",
    "lat": 49.195278,
    "lon": -0.328547
  },
  {
    "id": "mada01",
    "name": "Centre Pénitentiaire",
    "lat": 49.141689,
    "lon": -0.31877
  },
  {
    "id": "COM_pova02",
    "name": "Poppa de Valois",
    "lat": 49.198666,
    "lon": -0.338943
  },
  {
    "id": "lelu02",
    "name": "Les Luthiers",
    "lat": 49.209316,
    "lon": -0.374115
  },
  {
    "id": "COM_gyla02",
    "name": "Gymnase Laporte",
    "lat": 49.196922,
    "lon": -0.335395
  },
  {
    "id": "lafr02",
    "name": "La Fresnaye",
    "lat": 49.154755,
    "lon": -0.327657
  },
  {
    "id": "COM_digu02_1",
    "name": "Digues",
    "lat": 49.144329,
    "lon": -0.371368
  },
  {
    "id": "sqpo02",
    "name": "Square Poppa",
    "lat": 49.177505,
    "lon": -0.386469
  },
  {
    "id": "COM_macl01",
    "name": "Mare aux Clercs",
    "lat": 49.208672,
    "lon": -0.506641
  },
  {
    "id": "sqpo01",
    "name": "Square Poppa",
    "lat": 49.177429,
    "lon": -0.386657
  },
  {
    "id": "COM_leva01_1",
    "name": "Le Val",
    "lat": 49.205856,
    "lon": -0.33448
  },
  {
    "id": "nomad8",
    "name": "Charité",
    "lat": 49.152496,
    "lon": -0.342905
  },
  {
    "id": "1150576",
    "name": "Canadiens",
    "lat": 49.252979,
    "lon": -0.486391
  },
  {
    "id": "lerm12",
    "name": "Leroy Merlin",
    "lat": 49.156898,
    "lon": -0.292074
  },
  {
    "id": "COM_noka12",
    "name": "Normandika",
    "lat": 49.145515,
    "lon": -0.366642
  },
  {
    "id": "bour04",
    "name": "Chemin Vert",
    "lat": 49.193768,
    "lon": -0.401895
  },
  {
    "id": "COM_egtha01",
    "name": "Thaon Eglise",
    "lat": 49.260864,
    "lon": -0.456657
  },
  {
    "id": "demo",
    "name": "Demolombe",
    "lat": 49.182713,
    "lon": -0.366157
  },
  {
    "id": "ARCOM@CAI020",
    "name": "Cairon Commerces",
    "lat": 49.234219,
    "lon": -0.44523
  },
  {
    "id": "cgmon01",
    "name": "Collège Montgomeri",
    "lat": 49.180695,
    "lon": -0.187455
  },
  {
    "id": "COM_veva02",
    "name": "Vert Vallon",
    "lat": 49.158546,
    "lon": -0.328004
  },
  {
    "id": "coty02",
    "name": "Coty",
    "lat": 49.19099,
    "lon": -0.397964
  },
  {
    "id": "COM_civa02_1",
    "name": "Porte Millet",
    "lat": 49.169258,
    "lon": -0.357638
  },
  {
    "id": "pel01",
    "name": "Pèlerins",
    "lat": 49.268906,
    "lon": -0.261221
  },
  {
    "id": "COM_chbo",
    "name": "Chemin aux Boeufs",
    "lat": 49.161514,
    "lon": -0.349345
  },
  {
    "id": "tasp11",
    "name": "Tampleu",
    "lat": 49.161427,
    "lon": -0.298268
  },
  {
    "id": "COM_chpp01",
    "name": "Chappe",
    "lat": 49.154263,
    "lon": -0.31228
  },
  {
    "id": "ruma01",
    "name": "Rue de Maltot",
    "lat": 49.175205,
    "lon": -0.382508
  },
  {
    "id": "COM_cova02",
    "name": "Collège Varignon",
    "lat": 49.197472,
    "lon": -0.332289
  },
  {
    "id": "egou01",
    "name": "Ouistreham Eglise",
    "lat": 49.276619,
    "lon": -0.257077
  },
  {
    "id": "COM_htme02",
    "name": "Haut Meslier",
    "lat": 49.230217,
    "lon": -0.43953
  },
  {
    "id": "chue01",
    "name": "Harris",
    "lat": 49.204678,
    "lon": -0.351713
  },
  {
    "id": "COM_zico02",
    "name": "Cormelles ZI",
    "lat": 49.15744,
    "lon": -0.324417
  },
  {
    "id": "ruba02",
    "name": "Barbeux",
    "lat": 49.171539,
    "lon": -0.358059
  },
  {
    "id": "1150282",
    "name": "Route de Bayeux",
    "lat": 49.188339,
    "lon": -0.415329
  },
  {
    "id": "vauc02",
    "name": "Vaucelles",
    "lat": 49.173981,
    "lon": -0.353922
  },
  {
    "id": "ARCOM@C021",
    "name": "Hippodrome",
    "lat": 49.178131,
    "lon": -0.363016
  },
  {
    "id": "vauc01",
    "name": "Vaucelles",
    "lat": 49.173882,
    "lon": -0.35389
  },
  {
    "id": "COM_ceaq11_1",
    "name": "Centre Aquatique",
    "lat": 49.187424,
    "lon": -0.441759
  },
  {
    "id": "arar01",
    "name": "Arbre Argenté",
    "lat": 49.19408,
    "lon": -0.28462
  },
  {
    "id": "COM_C020",
    "name": "Place Courtonne",
    "lat": 49.184261,
    "lon": -0.357489
  },
  {
    "id": "meta02",
    "name": "Jardins de Clopée",
    "lat": 49.1894,
    "lon": -0.289096
  },
  {
    "id": "COM_p27j01",
    "name": "Place du 27 Juin",
    "lat": 49.187225,
    "lon": -0.445873
  },
  {
    "id": "jacl01",
    "name": "Sidérurgie",
    "lat": 49.191113,
    "lon": -0.28522
  },
  {
    "id": "COM_newt03",
    "name": "NEWTON",
    "lat": 49.153557,
    "lon": -0.307083
  },
  {
    "id": "cach03",
    "name": "Cacharat",
    "lat": 49.241734,
    "lon": -0.518439
  },
  {
    "id": "COM_niep04",
    "name": "NIEPCE",
    "lat": 49.156216,
    "lon": -0.304068
  },
  {
    "id": "alle01",
    "name": "Allende",
    "lat": 49.20401,
    "lon": -0.343432
  },
  {
    "id": "COM_cach03",
    "name": "Cacharat",
    "lat": 49.241768,
    "lon": -0.517963
  },
  {
    "id": "cu01",
    "name": "Cité U Lebisey",
    "lat": 49.199623,
    "lon": -0.353778
  },
  {
    "id": "COM_copl02",
    "name": "Colleville Plage",
    "lat": 49.291538,
    "lon": -0.283721
  },
  {
    "id": "bbrh01",
    "name": "Rue du Home",
    "lat": 49.245235,
    "lon": -0.3306
  },
  {
    "id": "COM_newt04",
    "name": "NEWTON",
    "lat": 49.153614,
    "lon": -0.307053
  },
  {
    "id": "bbrh02",
    "name": "Rue du Home",
    "lat": 49.245949,
    "lon": -0.330363
  },
  {
    "id": "COM_marcu02",
    "name": "MARIE CURIE",
    "lat": 49.21336,
    "lon": -0.345625
  },
  {
    "id": "cale02",
    "name": "Carrefour de Lebisey",
    "lat": 49.213936,
    "lon": -0.340573
  },
  {
    "id": "COM_th32",
    "name": "Théâtre Quai 3",
    "lat": 49.180508,
    "lon": -0.363054
  },
  {
    "id": "bbcb01",
    "name": "Clos Bosquin",
    "lat": 49.240643,
    "lon": -0.326916
  },
  {
    "id": "1150288",
    "name": "Hôtel de Ville Quai 3",
    "lat": 49.180141,
    "lon": -0.371002
  },
  {
    "id": "edza01",
    "name": "Edouard Zarifian",
    "lat": 49.278103,
    "lon": -0.269133
  },
  {
    "id": "ARCOM@C022",
    "name": "Théâtre Quai 5",
    "lat": 49.179573,
    "lon": -0.36315
  },
  {
    "id": "ousc01",
    "name": "Sacré Coeur",
    "lat": 49.277447,
    "lon": -0.262834
  },
  {
    "id": "COM_blca01",
    "name": "Calmette",
    "lat": 49.223545,
    "lon": -0.308587
  },
  {
    "id": "poou01",
    "name": "Ouistreham  Port",
    "lat": 49.279469,
    "lon": -0.250708
  },
  {
    "id": "COM_plma21",
    "name": "Miséricorde",
    "lat": 49.185921,
    "lon": -0.367304
  },
  {
    "id": "bbcb02",
    "name": "Clos Bosquin",
    "lat": 49.240654,
    "lon": -0.32682
  },
  {
    "id": "COM_th91",
    "name": "Théâtre Quai 1",
    "lat": 49.180454,
    "lon": -0.362708
  },
  {
    "id": "vice02",
    "name": "Cerisiers",
    "lat": 49.238602,
    "lon": -0.411699
  },
  {
    "id": "COM_belv02",
    "name": "Belvédère",
    "lat": 49.187241,
    "lon": -0.42196
  },
  {
    "id": "jeun01",
    "name": "Cairon Château",
    "lat": 49.237732,
    "lon": -0.450314
  },
  {
    "id": "COM_cthe12",
    "name": "Théâtre Quai 4",
    "lat": 49.179775,
    "lon": -0.363331
  },
  {
    "id": "laza02",
    "name": "Lazzaro",
    "lat": 49.20071,
    "lon": -0.29342
  },
  {
    "id": "COM_hdvc02",
    "name": "Hôtel de Ville Quai 2",
    "lat": 49.181454,
    "lon": -0.370507
  },
  {
    "id": "vieu01",
    "name": "Cairon Commerces",
    "lat": 49.234222,
    "lon": -0.445319
  },
  {
    "id": "COM_norv02",
    "name": "Norvège",
    "lat": 49.237255,
    "lon": -0.415603
  },
  {
    "id": "dudu02",
    "name": "Lycée D. d'Urville",
    "lat": 49.195461,
    "lon": -0.355388
  },
  {
    "id": "COM_cree01",
    "name": "Thaon Mairie",
    "lat": 49.258236,
    "lon": -0.455221
  },
  {
    "id": "dldt01",
    "name": "Tassigny",
    "lat": 49.201656,
    "lon": -0.387931
  },
  {
    "id": "cadi11",
    "name": "Café des Images",
    "lat": 49.202126,
    "lon": -0.33277
  },
  {
    "id": "dudu01",
    "name": "Lycée D. d'Urville",
    "lat": 49.196198,
    "lon": -0.355111
  },
  {
    "id": "rbay02",
    "name": "Route de Bayeux",
    "lat": 49.1884,
    "lon": -0.415337
  },
  {
    "id": "brie02",
    "name": "Collège Guillemot",
    "lat": 49.171574,
    "lon": -0.316296
  },
  {
    "id": "hipp02",
    "name": "Hippodrome",
    "lat": 49.178131,
    "lon": -0.363016
  },
  {
    "id": "rleb02",
    "name": "Rue de Lebisey",
    "lat": 49.192818,
    "lon": -0.357102
  },
  {
    "id": "bure12",
    "name": "Bures",
    "lat": 49.199341,
    "lon": -0.173713
  },
  {
    "id": "cons01",
    "name": "Hôtel de Ville Quai 1",
    "lat": 49.180672,
    "lon": -0.370129
  },
  {
    "id": "orna02",
    "name": "Ornavik",
    "lat": 49.217068,
    "lon": -0.312453
  },
  {
    "id": "esta02",
    "name": "Estapi",
    "lat": 49.215118,
    "lon": -0.405504
  },
  {
    "id": "volt01",
    "name": "Voltaire",
    "lat": 49.232311,
    "lon": -0.304905
  },
  {
    "id": "rubos02",
    "name": "Jardin des Plantes",
    "lat": 49.188988,
    "lon": -0.369767
  },
  {
    "id": "demou02",
    "name": "Démouville Mairie",
    "lat": 49.178165,
    "lon": -0.270013
  },
  {
    "id": "fmar02",
    "name": "La Ferme Marais",
    "lat": 49.179089,
    "lon": -0.300886
  },
  {
    "id": "jaca11",
    "name": "Jacques Cartier",
    "lat": 49.208832,
    "lon": -0.42947
  },
  {
    "id": "chbo",
    "name": "Chemin aux Boeufs",
    "lat": 49.162148,
    "lon": -0.349247
  },
  {
    "id": "cuss01",
    "name": "Cussy",
    "lat": 49.201626,
    "lon": -0.417174
  },
  {
    "id": "impd02",
    "name": "IMP",
    "lat": 49.17762,
    "lon": -0.272261
  },
  {
    "id": "rdpu01",
    "name": "Rue du Puits",
    "lat": 49.201256,
    "lon": -0.406022
  },
  {
    "id": "debu12",
    "name": "Debussy",
    "lat": 49.13969,
    "lon": -0.354695
  },
  {
    "id": "char22",
    "name": "Molière",
    "lat": 49.192879,
    "lon": -0.393593
  },
  {
    "id": "poin31",
    "name": "Poincaré",
    "lat": 49.165554,
    "lon": -0.342794
  },
  {
    "id": "cdna21",
    "name": "Côte de Nacre",
    "lat": 49.211079,
    "lon": -0.362092
  },
  {
    "id": "rofr01",
    "name": "Rostand Fresnel",
    "lat": 49.162132,
    "lon": -0.354318
  },
  {
    "id": "pojo01",
    "name": "Point du Jour",
    "lat": 49.180187,
    "lon": -0.297446
  },
  {
    "id": "rofr02",
    "name": "Rostand Fresnel",
    "lat": 49.162033,
    "lon": -0.35397
  },
  {
    "id": "chan02",
    "name": "Chanterie",
    "lat": 49.199448,
    "lon": -0.408321
  },
  {
    "id": "libec11",
    "name": "Libéra",
    "lat": 49.188297,
    "lon": -0.297874
  },
  {
    "id": "siva01",
    "name": "Silicon Valley",
    "lat": 49.179264,
    "lon": -0.394998
  },
  {
    "id": "htme01",
    "name": "Haut Meslier",
    "lat": 49.229717,
    "lon": -0.43883
  },
  {
    "id": "deba12",
    "name": "Débarquement",
    "lat": 49.202789,
    "lon": -0.392266
  },
  {
    "id": "stceg02",
    "name": "Saint-Contest Eglise",
    "lat": 49.214188,
    "lon": -0.401886
  },
  {
    "id": "hebr02",
    "name": "Brunet",
    "lat": 49.203934,
    "lon": -0.433337
  },
  {
    "id": "clso02",
    "name": "Clair Soleil",
    "lat": 49.172546,
    "lon": -0.320227
  },
  {
    "id": "hmpl01",
    "name": "Hermanville Plage",
    "lat": 49.29781,
    "lon": -0.30562
  },
  {
    "id": "cipa01",
    "name": "Cimetière Parc",
    "lat": 49.196247,
    "lon": -0.405102
  },
  {
    "id": "plca02",
    "name": "Place du Canada",
    "lat": 49.185562,
    "lon": -0.371713
  },
  {
    "id": "civa01",
    "name": "Porte Millet",
    "lat": 49.169182,
    "lon": -0.357826
  },
  {
    "id": "plca01",
    "name": "Place du Canada",
    "lat": 49.185295,
    "lon": -0.371644
  },
  {
    "id": "1152414",
    "name": "Bray",
    "lat": 49.226639,
    "lon": -0.489447
  },
  {
    "id": "1151555",
    "name": "Bas manoir",
    "lat": 49.161758,
    "lon": -0.42949
  },
  {
    "id": "canad02",
    "name": "Canadiens",
    "lat": 49.252998,
    "lon": -0.48635
  },
  {
    "id": "pebri01",
    "name": "Pégasus Bridge",
    "lat": 49.242916,
    "lon": -0.278731
  },
  {
    "id": "canad01",
    "name": "Canadiens",
    "lat": 49.25296,
    "lon": -0.486432
  },
  {
    "id": "pebri02",
    "name": "Pégasus Bridge",
    "lat": 49.242794,
    "lon": -0.278945
  },
  {
    "id": "1152510",
    "name": "Le Fresne Mairie",
    "lat": 49.257896,
    "lon": -0.488503
  },
  {
    "id": "mjc02",
    "name": "PAJ-MJC",
    "lat": 49.200562,
    "lon": -0.332771
  },
  {
    "id": "hmca02",
    "name": "Canardière",
    "lat": 49.290421,
    "lon": -0.309707
  },
  {
    "id": "stcl01",
    "name": "Saint-Clair",
    "lat": 49.203739,
    "lon": -0.330698
  },
  {
    "id": "grha01",
    "name": "Grande Halle",
    "lat": 49.191635,
    "lon": -0.303965
  },
  {
    "id": "stor02",
    "name": "Stade d'Ornano",
    "lat": 49.180824,
    "lon": -0.396684
  },
  {
    "id": "digu01",
    "name": "Digues",
    "lat": 49.144341,
    "lon": -0.371451
  },
  {
    "id": "stcme02",
    "name": "Stade C. Mercier",
    "lat": 49.177608,
    "lon": -0.390685
  },
  {
    "id": "mtha01",
    "name": "Thaon Mairie",
    "lat": 49.258072,
    "lon": -0.45667
  },
  {
    "id": "nash02",
    "name": "Nashville",
    "lat": 49.200733,
    "lon": -0.387764
  },
  {
    "id": "th32",
    "name": "Théâtre Quai 3",
    "lat": 49.180508,
    "lon": -0.363054
  },
  {
    "id": "valo01",
    "name": "Val d'Odon",
    "lat": 49.131695,
    "lon": -0.50248
  },
  {
    "id": "leva02",
    "name": "Le Val",
    "lat": 49.206005,
    "lon": -0.334138
  },
  {
    "id": "rice02",
    "name": "Riva Centre",
    "lat": 49.284542,
    "lon": -0.261832
  },
  {
    "id": "clmo02",
    "name": "Claude Monet",
    "lat": 49.160789,
    "lon": -0.346367
  },
  {
    "id": "mitt02",
    "name": "Mitterrand",
    "lat": 49.299919,
    "lon": -0.329206
  },
  {
    "id": "plma11",
    "name": "Place de la Mare",
    "lat": 49.186592,
    "lon": -0.366843
  },
  {
    "id": "mitt01",
    "name": "Mitterrand",
    "lat": 49.299442,
    "lon": -0.328686
  },
  {
    "id": "pigr",
    "name": "Pierre Gringoire",
    "lat": 49.173527,
    "lon": -0.341325
  },
  {
    "id": "con02",
    "name": "Concorde",
    "lat": 49.156956,
    "lon": -0.341779
  },
  {
    "id": "rubr01",
    "name": "Branville",
    "lat": 49.167767,
    "lon": -0.36314
  },
  {
    "id": "lefo01",
    "name": "Léon Foucault",
    "lat": 49.209751,
    "lon": -0.350356
  },
  {
    "id": "isig02",
    "name": "Isigny",
    "lat": 49.190205,
    "lon": -0.400474
  },
  {
    "id": "visa12",
    "name": "Vissol Sablons",
    "lat": 49.195988,
    "lon": -0.368527
  },
  {
    "id": "isig01",
    "name": "Isigny",
    "lat": 49.19006,
    "lon": -0.400987
  },
  {
    "id": "ds02",
    "name": "Sphère",
    "lat": 49.210201,
    "lon": -0.347542
  },
  {
    "id": "gdno11",
    "name": "Collège de Normandie",
    "lat": 49.1623,
    "lon": -0.348432
  },
  {
    "id": "ds01",
    "name": "Sphère",
    "lat": 49.21032,
    "lon": -0.347479
  },
  {
    "id": "gdno12",
    "name": "Collège de Normandie",
    "lat": 49.161854,
    "lon": -0.348258
  },
  {
    "id": "lefo02",
    "name": "Léon Foucault",
    "lat": 49.209629,
    "lon": -0.350256
  },
  {
    "id": "lyau02",
    "name": "Lyautey",
    "lat": 49.167744,
    "lon": -0.361398
  },
  {
    "id": "cam502",
    "name": "Campus 5",
    "lat": 49.208847,
    "lon": -0.351821
  },
  {
    "id": "havi01",
    "name": "Haie Vigné",
    "lat": 49.179962,
    "lon": -0.383994
  },
  {
    "id": "hmmi01",
    "name": "Minotaure",
    "lat": 49.29435,
    "lon": -0.304728
  },
  {
    "id": "cldr01",
    "name": "Clos des Roses",
    "lat": 49.186726,
    "lon": -0.39258
  },
  {
    "id": "avmo21",
    "name": "Morice",
    "lat": 49.206707,
    "lon": -0.352358
  },
  {
    "id": "laja01",
    "name": "La Jalousie",
    "lat": 49.074348,
    "lon": -0.296956
  },
  {
    "id": "hmma01",
    "name": "Hermanville Mairie",
    "lat": 49.287037,
    "lon": -0.312748
  },
  {
    "id": "blpa01",
    "name": "Blainville Parc",
    "lat": 49.233696,
    "lon": -0.289711
  },